{"period":"combined","min_count":10,"subtypes":["Noise - Residential","Noise - Street/Sidewalk","Noise - Commercial","Noise","Noise - Vehicle","Noise - Helicopter","Noise - Park","Noise - House of Worship"],"locations":[{"lat":40.891869,"lng":-73.860158,"n":128331,"addr":"655 East  230 Street","boro":"Bronx","cb":"12 BRONX","subs":{"Noise - Residential":128330,"Noise":1},"top_desc":"Loud Music/Party"},{"lat":40.721959,"lng":-73.809697,"n":8465,"addr":"78-15 Parsons Boulevard","boro":"Queens","cb":"08 QUEENS","subs":{"Noise - Residential":1795,"Noise - House of Worship":2674,"Noise":2138,"Noise - Helicopter":393,"Noise - Vehicle":1465},"top_desc":"Loud Talking"},{"lat":40.836945,"lng":-73.903742,"n":5922,"addr":"1465 Washington Avenue","boro":"Bronx","cb":"03 BRONX","subs":{"Noise - Residential":4666,"Noise":9,"Noise - Vehicle":212,"Noise - Street/Sidewalk":1035},"top_desc":"Loud Music/Party"},{"lat":40.608101,"lng":-73.999385,"n":5292,"addr":"1869 83 Street","boro":"Brooklyn","cb":"11 BROOKLYN","subs":{"Noise - Residential":5290,"Noise - Street/Sidewalk":1,"Noise":1},"top_desc":"Banging/Pounding"},{"lat":40.6998,"lng":-73.983616,"n":2873,"addr":"177 Sands Street","boro":"Brooklyn","cb":"02 BROOKLYN","subs":{"Noise - Residential":2868,"Noise - Street/Sidewalk":5},"top_desc":"Banging/Pounding"},{"lat":40.694852,"lng":-73.79368,"n":2857,"addr":"108-26 159 Street","boro":"Queens","cb":"12 QUEENS","subs":{"Noise - Residential":49,"Noise - Street/Sidewalk":2808},"top_desc":"Loud Music/Party"},{"lat":40.75865,"lng":-73.841743,"n":2203,"addr":"127-11 Willets Point Boulevard","boro":"Queens","cb":"07 QUEENS","subs":{"Noise - Street/Sidewalk":2148,"Noise - Residential":18,"Noise - Vehicle":10,"Noise - Commercial":27},"top_desc":"Loud Music/Party"},{"lat":40.722388,"lng":-73.809524,"n":2152,"addr":"158-33 78 Avenue","boro":"Queens","cb":"08 QUEENS","subs":{"Noise - Helicopter":392,"Noise - Vehicle":1240,"Noise - Residential":519,"Noise":1},"top_desc":"Car/Truck Horn"},{"lat":40.740647,"lng":-73.979651,"n":2059,"addr":"243 East   27 Street","boro":"Manhattan","cb":"06 MANHATTAN","subs":{"Noise - Residential":2048,"Noise":6,"Noise - Vehicle":2,"Noise - Street/Sidewalk":3},"top_desc":"Banging/Pounding"},{"lat":40.823816,"lng":-73.938286,"n":2006,"addr":"206 West  148 Street","boro":"Manhattan","cb":"10 MANHATTAN","subs":{"Noise - Residential":1930,"Noise - Street/Sidewalk":25,"Noise":51},"top_desc":"Banging/Pounding"},{"lat":40.804846,"lng":-73.945488,"n":1892,"addr":"18 Mt Morris Park West","boro":"Manhattan","cb":"11 MANHATTAN","subs":{"Noise - Park":1877,"Noise - Street/Sidewalk":12,"Noise - Residential":2,"Noise - Vehicle":1},"top_desc":"Loud Music/Party"},{"lat":40.862406,"lng":-73.911097,"n":1827,"addr":"233 Landing Road","boro":"Bronx","cb":"07 BRONX","subs":{"Noise - Residential":1826,"Noise":1},"top_desc":"Banging/Pounding"},{"lat":40.674188,"lng":-73.967833,"n":1809,"addr":"295 St Johns Place","boro":"Brooklyn","cb":"08 BROOKLYN","subs":{"Noise":6,"Noise - Helicopter":1783,"Noise - Residential":11,"Noise - Street/Sidewalk":8,"Noise - Vehicle":1},"top_desc":"Other"},{"lat":40.848516,"lng":-73.905977,"n":1772,"addr":"1872 Monroe Avenue","boro":"Bronx","cb":"05 BRONX","subs":{"Noise - Residential":1547,"Noise - Street/Sidewalk":207,"Noise - Vehicle":16,"Noise":2},"top_desc":"Banging/Pounding"},{"lat":40.834847,"lng":-73.904918,"n":1694,"addr":"1385 Washington Avenue","boro":"Bronx","cb":"03 BRONX","subs":{"Noise - Residential":1636,"Noise":51,"Noise - Street/Sidewalk":5,"Noise - Vehicle":2},"top_desc":"Banging/Pounding"},{"lat":40.714131,"lng":-73.745467,"n":1607,"addr":"99-36 213 Street","boro":"Queens","cb":"13 QUEENS","subs":{"Noise - Residential":1605,"Noise - Street/Sidewalk":2},"top_desc":"Loud Talking"},{"lat":40.831561,"lng":-73.928837,"n":1570,"addr":"957 Woodycrest Avenue","boro":"Bronx","cb":"04 BRONX","subs":{"Noise - Residential":1212,"Noise - Street/Sidewalk":319,"Noise - Vehicle":34,"Noise - Commercial":2,"Noise":3},"top_desc":"Loud Music/Party"},{"lat":40.798815,"lng":-73.947799,"n":1533,"addr":"1365 5 Avenue","boro":"Manhattan","cb":"11 MANHATTAN","subs":{"Noise - Residential":1532,"Noise - Street/Sidewalk":1},"top_desc":"Loud Music/Party"},{"lat":40.679775,"lng":-73.908895,"n":1402,"addr":"203 Hull Street","boro":"Brooklyn","cb":"16 BROOKLYN","subs":{"Noise - Street/Sidewalk":21,"Noise - Residential":1381},"top_desc":"Banging/Pounding"},{"lat":40.720222,"lng":-74.006742,"n":1356,"addr":"21 Varick Street","boro":"Manhattan","cb":"01 MANHATTAN","subs":{"Noise - Residential":1354,"Noise - Vehicle":2},"top_desc":"Loud Talking"},{"lat":40.8496,"lng":-73.936736,"n":1262,"addr":"700 West  180 Street","boro":"Manhattan","cb":"12 MANHATTAN","subs":{"Noise - Residential":1235,"Noise - Street/Sidewalk":20,"Noise":2,"Noise - Commercial":5},"top_desc":"Banging/Pounding"},{"lat":40.751239,"lng":-73.886485,"n":1248,"addr":"35-28 80 Street","boro":"Queens","cb":"03 QUEENS","subs":{"Noise - Vehicle":1234,"Noise - Commercial":5,"Noise - Residential":3,"Noise - Street/Sidewalk":3,"Noise":2,"Noise - Helicopter":1},"top_desc":"Car/Truck Horn"},{"lat":40.717249,"lng":-73.803433,"n":1237,"addr":"82-68 164 Street","boro":"Queens","cb":"08 QUEENS","subs":{"Noise - Residential":97,"Noise - Street/Sidewalk":1,"Noise - Vehicle":1139},"top_desc":"Car/Truck Horn"},{"lat":40.755825,"lng":-73.943033,"n":1225,"addr":"40-14 12 Street","boro":"Queens","cb":"01 QUEENS","subs":{"Noise - Residential":1176,"Noise":3,"Noise - Street/Sidewalk":41,"Noise - Commercial":2,"Noise - Park":3},"top_desc":"Banging/Pounding"},{"lat":40.858553,"lng":-73.929643,"n":1214,"addr":"35 Hillside Avenue","boro":"Manhattan","cb":"12 MANHATTAN","subs":{"Noise - Residential":1174,"Noise - Vehicle":6,"Noise - Street/Sidewalk":32,"Noise":2},"top_desc":"Loud Television"},{"lat":40.833473,"lng":-73.941544,"n":1166,"addr":"Amsterdam Avenue","boro":"Manhattan","cb":"12 MANHATTAN","subs":{"Noise - Residential":43,"Noise - Street/Sidewalk":1119,"Noise - Commercial":2,"Noise":1,"Noise - Vehicle":1},"top_desc":"Loud Talking"},{"lat":40.74181,"lng":-73.980496,"n":1138,"addr":"208 East   28 Street","boro":"Manhattan","cb":"06 MANHATTAN","subs":{"Noise - Helicopter":1125,"Noise - Street/Sidewalk":5,"Noise - Residential":1,"Noise - Vehicle":4,"Noise":3},"top_desc":"Other"},{"lat":40.705784,"lng":-73.809588,"n":1089,"addr":"147-01 Hillside Avenue","boro":"Queens","cb":"08 QUEENS","subs":{"Noise - Residential":1068,"Noise - Street/Sidewalk":7,"Noise":13,"Noise - Vehicle":1},"top_desc":"Loud Music/Party"},{"lat":40.824151,"lng":-73.95295,"n":1017,"addr":"620 West  141 Street","boro":"Manhattan","cb":"09 MANHATTAN","subs":{"Noise - Residential":784,"Noise":3,"Noise - Street/Sidewalk":229,"Noise - Vehicle":1},"top_desc":"Loud Talking"},{"lat":40.791024,"lng":-73.951337,"n":985,"addr":"50 East  102 Street","boro":"Manhattan","cb":"11 MANHATTAN","subs":{"Noise - Residential":981,"Noise":3,"Noise - Street/Sidewalk":1},"top_desc":"Banging/Pounding"},{"lat":40.818528,"lng":-73.941361,"n":956,"addr":"2400 7 Avenue","boro":"Manhattan","cb":"10 MANHATTAN","subs":{"Noise - Street/Sidewalk":671,"Noise - Commercial":258,"Noise - Residential":25,"Noise - Vehicle":2},"top_desc":"Loud Talking"},{"lat":40.748585,"lng":-73.862897,"n":956,"addr":"41-01 National Street","boro":"Queens","cb":"04 QUEENS","subs":{"Noise - Street/Sidewalk":904,"Noise - Residential":48,"Noise - Commercial":4},"top_desc":"Loud Talking"},{"lat":40.812842,"lng":-73.945685,"n":948,"addr":"200 West  131 Street","boro":"Manhattan","cb":"10 MANHATTAN","subs":{"Noise - Street/Sidewalk":103,"Noise - Commercial":10,"Noise":3,"Noise - Residential":825,"Noise - Vehicle":6,"Noise - Park":1},"top_desc":"Banging/Pounding"},{"lat":40.837385,"lng":-73.903493,"n":899,"addr":"1481 Washington Avenue","boro":"Bronx","cb":"03 BRONX","subs":{"Noise - Residential":349,"Noise - Street/Sidewalk":487,"Noise - Vehicle":63},"top_desc":"Loud Music/Party"},{"lat":40.704396,"lng":-73.963991,"n":877,"addr":"75 Wilson Street","boro":"Brooklyn","cb":"01 BROOKLYN","subs":{"Noise - Residential":869,"Noise - Vehicle":1,"Noise - Street/Sidewalk":5,"Noise":2},"top_desc":"Banging/Pounding"},{"lat":40.775361,"lng":-73.977976,"n":866,"addr":"28 West   70 Street","boro":"Manhattan","cb":"07 MANHATTAN","subs":{"Noise - Helicopter":828,"Noise":26,"Noise - Residential":12},"top_desc":"Other"},{"lat":40.751273,"lng":-73.886473,"n":865,"addr":"35-27 80 Street","boro":"Queens","cb":"03 QUEENS","subs":{"Noise - Vehicle":832,"Noise - Residential":26,"Noise":6,"Noise - House of Worship":1},"top_desc":"Car/Truck Horn"},{"lat":40.825866,"lng":-73.925913,"n":844,"addr":"825 Gerard Avenue","boro":"Bronx","cb":"04 BRONX","subs":{"Noise - Street/Sidewalk":621,"Noise - Vehicle":85,"Noise - Residential":137,"Noise":1},"top_desc":"Loud Music/Party"},{"lat":40.701376,"lng":-73.983453,"n":841,"addr":"190 York Street","boro":"Brooklyn","cb":"02 BROOKLYN","subs":{"Noise - Residential":783,"Noise":51,"Noise - Vehicle":3,"Noise - Street/Sidewalk":4},"top_desc":"Banging/Pounding"},{"lat":40.800669,"lng":-73.948653,"n":824,"addr":"40 West  115 Street","boro":"Manhattan","cb":"10 MANHATTAN","subs":{"Noise - Residential":293,"Noise":9,"Noise - Street/Sidewalk":516,"Noise - Commercial":3,"Noise - Vehicle":3},"top_desc":"Loud Talking"},{"lat":40.743541,"lng":-73.861356,"n":822,"addr":"102-01 Alstyne Avenue","boro":"Queens","cb":"04 QUEENS","subs":{"Noise - Street/Sidewalk":819,"Noise - Commercial":1,"Noise - Residential":2},"top_desc":"Loud Talking"},{"lat":40.592623,"lng":-73.959147,"n":798,"addr":"2355 East   12 Street","boro":"Brooklyn","cb":"15 BROOKLYN","subs":{"Noise - Residential":798},"top_desc":"Banging/Pounding"},{"lat":40.719009,"lng":-73.846639,"n":780,"addr":"1 Tennis Place","boro":"Queens","cb":"06 QUEENS","subs":{"Noise - Commercial":549,"Noise - Vehicle":4,"Noise":13,"Noise - Street/Sidewalk":80,"Noise - Residential":133,"Noise - Park":1},"top_desc":"Loud Music/Party"},{"lat":40.789756,"lng":-73.945986,"n":749,"addr":"1875 3 Avenue","boro":"Manhattan","cb":"11 MANHATTAN","subs":{"Noise - Residential":744,"Noise":5},"top_desc":"Banging/Pounding"},{"lat":40.677769,"lng":-73.873591,"n":747,"addr":"975 Liberty Avenue","boro":"Brooklyn","cb":"05 BROOKLYN","subs":{"Noise - Residential":739,"Noise - Street/Sidewalk":6,"Noise - Commercial":2},"top_desc":"Banging/Pounding"},{"lat":40.825556,"lng":-73.914214,"n":732,"addr":"929 Courtlandt Avenue","boro":"Bronx","cb":"03 BRONX","subs":{"Noise - Residential":730,"Noise - Street/Sidewalk":2},"top_desc":"Banging/Pounding"},{"lat":40.816959,"lng":-73.942501,"n":730,"addr":"2348 7 Avenue","boro":"Manhattan","cb":"10 MANHATTAN","subs":{"Noise - Street/Sidewalk":559,"Noise - Commercial":151,"Noise - Vehicle":12,"Noise":4,"Noise - Residential":4},"top_desc":"Loud Talking"},{"lat":40.648972,"lng":-73.880765,"n":700,"addr":"135 Elmira Loop","boro":"Brooklyn","cb":"05 BROOKLYN","subs":{"Noise - Residential":645,"Noise - Street/Sidewalk":42,"Noise":9,"Noise - Vehicle":4},"top_desc":"Banging/Pounding"},{"lat":40.656984,"lng":-73.962225,"n":700,"addr":"239 Ocean Avenue","boro":"Brooklyn","cb":"09 BROOKLYN","subs":{"Noise - Residential":695,"Noise":3,"Noise - Street/Sidewalk":2},"top_desc":"Banging/Pounding"},{"lat":40.812377,"lng":-73.952397,"n":694,"addr":"362 West  127 Street","boro":"Manhattan","cb":"09 MANHATTAN","subs":{"Noise - Street/Sidewalk":663,"Noise - Residential":27,"Noise - Vehicle":2,"Noise - Commercial":1,"Noise":1},"top_desc":"Loud Music/Party"},{"lat":40.723949,"lng":-73.855676,"n":693,"addr":"98-01 67 Avenue","boro":"Queens","cb":"06 QUEENS","subs":{"Noise - Residential":671,"Noise":11,"Noise - Street/Sidewalk":10,"Noise - Park":1},"top_desc":"Banging/Pounding"},{"lat":40.837121,"lng":-73.940527,"n":693,"addr":"520 West  163 Street","boro":"Manhattan","cb":"12 MANHATTAN","subs":{"Noise - Residential":473,"Noise - Vehicle":212,"Noise - Street/Sidewalk":8},"top_desc":"Banging/Pounding"},{"lat":40.644912,"lng":-73.99791,"n":690,"addr":"849 42 Street","boro":"Brooklyn","cb":"12 BROOKLYN","subs":{"Noise - Street/Sidewalk":222,"Noise - Residential":457,"Noise - Vehicle":8,"Noise":3},"top_desc":"Banging/Pounding"},{"lat":40.750113,"lng":-73.996331,"n":677,"addr":"330 West   30 Street","boro":"Manhattan","cb":"04 MANHATTAN","subs":{"Noise - Residential":677},"top_desc":"Banging/Pounding"},{"lat":40.720328,"lng":-73.807761,"n":675,"addr":"159-06 Union Turnpike","boro":"Queens","cb":"08 QUEENS","subs":{"Noise - House of Worship":1,"Noise - Vehicle":647,"Noise - Residential":25,"Noise":2},"top_desc":"Car/Truck Horn"},{"lat":40.818693,"lng":-73.850442,"n":674,"addr":"2120 Randall Avenue","boro":"Bronx","cb":"09 BRONX","subs":{"Noise - Residential":669,"Noise - Street/Sidewalk":4,"Noise":1},"top_desc":"Banging/Pounding"},{"lat":40.870363,"lng":-73.902795,"n":670,"addr":"2730 Sedgwick Avenue","boro":"Bronx","cb":"08 BRONX","subs":{"Noise":22,"Noise - Residential":536,"Noise - Street/Sidewalk":111,"Noise - Vehicle":1},"top_desc":"Loud Talking"},{"lat":40.861252,"lng":-73.927708,"n":667,"addr":"27 Sickles Street","boro":"Manhattan","cb":"12 MANHATTAN","subs":{"Noise - Residential":658,"Noise":8,"Noise - Street/Sidewalk":1},"top_desc":"Banging/Pounding"},{"lat":40.801019,"lng":-73.952533,"n":653,"addr":"67 St Nicholas Avenue","boro":"Manhattan","cb":"10 MANHATTAN","subs":{"Noise - Street/Sidewalk":531,"Noise - Vehicle":93,"Noise":2,"Noise - Commercial":5,"Noise - Residential":22},"top_desc":"Loud Talking"},{"lat":40.575101,"lng":-73.989886,"n":644,"addr":"2945 West   23 Street","boro":"Brooklyn","cb":"13 BROOKLYN","subs":{"Noise - Residential":634,"Noise - Street/Sidewalk":9,"Noise - Park":1},"top_desc":"Banging/Pounding"},{"lat":40.836667,"lng":-73.943334,"n":642,"addr":"600 West  161 Street","boro":"Manhattan","cb":"12 MANHATTAN","subs":{"Noise - Vehicle":21,"Noise - Street/Sidewalk":517,"Noise - Commercial":98,"Noise - Residential":6},"top_desc":"Loud Talking"},{"lat":40.882146,"lng":-73.896924,"n":633,"addr":"68 West  238 Street","boro":"Bronx","cb":"08 BRONX","subs":{"Noise - Residential":632,"Noise":1},"top_desc":"Loud Music/Party"},{"lat":40.856058,"lng":-73.862893,"n":618,"addr":"2183 Matthews Avenue","boro":"Bronx","cb":"11 BRONX","subs":{"Noise - Residential":613,"Noise - Street/Sidewalk":5},"top_desc":"Loud Talking"},{"lat":40.840856,"lng":-73.937385,"n":613,"addr":"524 West  169 Street","boro":"Manhattan","cb":"12 MANHATTAN","subs":{"Noise - Vehicle":20,"Noise - Street/Sidewalk":516,"Noise - Residential":77},"top_desc":"Loud Music/Party"},{"lat":40.755601,"lng":-73.945717,"n":612,"addr":"41-03 10 Street","boro":"Queens","cb":"01 QUEENS","subs":{"Noise - Residential":603,"Noise - Street/Sidewalk":7,"Noise - Commercial":1,"Noise":1},"top_desc":"Banging/Pounding"},{"lat":40.688335,"lng":-73.930144,"n":605,"addr":"150 Malcolm X Boulevard","boro":"Brooklyn","cb":"03 BROOKLYN","subs":{"Noise - Residential":602,"Noise - Vehicle":2,"Noise - Street/Sidewalk":1},"top_desc":"Loud Music/Party"},{"lat":40.847866,"lng":-73.899223,"n":605,"addr":"4215 Park Avenue","boro":"Bronx","cb":"06 BRONX","subs":{"Noise - Residential":595,"Noise":2,"Noise - Vehicle":1,"Noise - Commercial":3,"Noise - Street/Sidewalk":4},"top_desc":"Banging/Pounding"},{"lat":40.742377,"lng":-73.842157,"n":597,"addr":"Flushing Meadows Corona Park","boro":"Queens","cb":"81 QUEENS","subs":{"Noise - Park":582,"Noise - Street/Sidewalk":12,"Noise - Vehicle":3},"top_desc":"Loud Music/Party"},{"lat":40.680892,"lng":-73.922372,"n":588,"addr":"254 Ralph Avenue","boro":"Brooklyn","cb":"03 BROOKLYN","subs":{"Noise - Residential":584,"Noise":1,"Noise - Street/Sidewalk":2,"Noise - Commercial":1},"top_desc":"Loud Talking"},{"lat":40.606039,"lng":-73.983178,"n":587,"addr":"1684 West   10 Street","boro":"Brooklyn","cb":"11 BROOKLYN","subs":{"Noise - Residential":584,"Noise - Street/Sidewalk":2,"Noise - Vehicle":1},"top_desc":"Banging/Pounding"},{"lat":40.737067,"lng":-73.998306,"n":587,"addr":"126 West   13 Street","boro":"Manhattan","cb":"02 MANHATTAN","subs":{"Noise - Street/Sidewalk":2,"Noise - Vehicle":1,"Noise":9,"Noise - Park":1,"Noise - Commercial":572,"Noise - Residential":2},"top_desc":"Loud Music/Party"},{"lat":40.670942,"lng":-73.954117,"n":585,"addr":"676 Lincoln Place","boro":"Brooklyn","cb":"08 BROOKLYN","subs":{"Noise - Vehicle":42,"Noise - Residential":41,"Noise - Street/Sidewalk":18,"Noise - Helicopter":479,"Noise":5},"top_desc":"Other"},{"lat":40.653491,"lng":-73.963209,"n":577,"addr":"80 Woodruff Avenue","boro":"Brooklyn","cb":"14 BROOKLYN","subs":{"Noise - Residential":563,"Noise - Street/Sidewalk":13,"Noise":1},"top_desc":"Banging/Pounding"},{"lat":40.659415,"lng":-73.938983,"n":576,"addr":"701 Fenimore Street","boro":"Brooklyn","cb":"09 BROOKLYN","subs":{"Noise - Street/Sidewalk":307,"Noise - Vehicle":139,"Noise - Residential":129,"Noise":1},"top_desc":"Loud Music/Party"},{"lat":40.745582,"lng":-73.879738,"n":575,"addr":"41-18 Hampton Street","boro":"Queens","cb":"04 QUEENS","subs":{"Noise - Residential":405,"Noise - Street/Sidewalk":170},"top_desc":"Loud Talking"},{"lat":40.577619,"lng":-73.990377,"n":568,"addr":"2832 West   23 Street","boro":"Brooklyn","cb":"13 BROOKLYN","subs":{"Noise - Residential":558,"Noise":2,"Noise - Street/Sidewalk":8},"top_desc":"Banging/Pounding"},{"lat":40.748197,"lng":-73.864549,"n":566,"addr":"100-26 41 Avenue","boro":"Queens","cb":"04 QUEENS","subs":{"Noise - Street/Sidewalk":472,"Noise - Residential":81,"Noise - Vehicle":13},"top_desc":"Loud Talking"},{"lat":40.77616,"lng":-73.977944,"n":564,"addr":"26 West   71 Street","boro":"Manhattan","cb":"07 MANHATTAN","subs":{"Noise - Helicopter":558,"Noise - Street/Sidewalk":1,"Noise - Residential":3,"Noise":2},"top_desc":"Other"},{"lat":40.838278,"lng":-73.90522,"n":564,"addr":"Brook Avenue","boro":"Bronx","cb":"03 BRONX","subs":{"Noise - Street/Sidewalk":534,"Noise - Vehicle":30},"top_desc":"Loud Music/Party"},{"lat":40.820745,"lng":-73.939061,"n":561,"addr":"162 West  144 Street","boro":"Manhattan","cb":"10 MANHATTAN","subs":{"Noise - Residential":556,"Noise - Street/Sidewalk":5},"top_desc":"Banging/Pounding"},{"lat":40.663523,"lng":-73.932682,"n":561,"addr":"897 Empire Boulevard","boro":"Brooklyn","cb":"09 BROOKLYN","subs":{"Noise - Residential":552,"Noise":1,"Noise - Street/Sidewalk":8},"top_desc":"Loud Music/Party"},{"lat":40.644782,"lng":-73.997715,"n":547,"addr":"864 42 Street","boro":"Brooklyn","cb":"12 BROOKLYN","subs":{"Noise - Street/Sidewalk":535,"Noise - Residential":7,"Noise - Vehicle":5},"top_desc":"Loud Talking"},{"lat":40.702781,"lng":-73.929392,"n":542,"addr":"44 Wilson Avenue","boro":"Brooklyn","cb":"04 BROOKLYN","subs":{"Noise - Commercial":215,"Noise - Street/Sidewalk":309,"Noise - Residential":16,"Noise - Vehicle":2},"top_desc":"Loud Talking"},{"lat":40.809377,"lng":-73.944302,"n":530,"addr":"348 Malcolm X Boulevard","boro":"Manhattan","cb":"10 MANHATTAN","subs":{"Noise - Commercial":524,"Noise - Residential":2,"Noise - Street/Sidewalk":3,"Noise - Vehicle":1},"top_desc":"Loud Music/Party"},{"lat":40.709097,"lng":-74.017104,"n":530,"addr":"300 Rector Place","boro":"Manhattan","cb":"01 MANHATTAN","subs":{"Noise - Helicopter":526,"Noise":3,"Noise - Park":1},"top_desc":"Other"},{"lat":40.760697,"lng":-73.820952,"n":529,"addr":"144-90 41 Avenue","boro":"Queens","cb":"07 QUEENS","subs":{"Noise - Residential":194,"Noise - Street/Sidewalk":146,"Noise - Vehicle":185,"Noise":4},"top_desc":"Car/Truck Horn"},{"lat":40.835504,"lng":-73.88818,"n":529,"addr":"932 East  173 Street","boro":"Bronx","cb":"03 BRONX","subs":{"Noise - Street/Sidewalk":459,"Noise - Residential":66,"Noise - Commercial":1,"Noise - Vehicle":3},"top_desc":"Loud Talking"},{"lat":40.748982,"lng":-73.862514,"n":528,"addr":"103-35 41 Avenue","boro":"Queens","cb":"04 QUEENS","subs":{"Noise - Park":1,"Noise - Street/Sidewalk":419,"Noise - Residential":108},"top_desc":"Loud Talking"},{"lat":40.822584,"lng":-73.949531,"n":526,"addr":"1635 Amsterdam Avenue","boro":"Manhattan","cb":"09 MANHATTAN","subs":{"Noise - Commercial":512,"Noise - Vehicle":1,"Noise - Street/Sidewalk":2,"Noise":2,"Noise - Residential":9},"top_desc":"Loud Music/Party"},{"lat":40.631288,"lng":-73.925279,"n":525,"addr":"1150 East   53 Street","boro":"Brooklyn","cb":"18 BROOKLYN","subs":{"Noise - Residential":518,"Noise - Street/Sidewalk":7},"top_desc":"Loud Talking"},{"lat":40.606932,"lng":-73.955015,"n":519,"addr":"1775 East   18 Street","boro":"Brooklyn","cb":"15 BROOKLYN","subs":{"Noise - Residential":517,"Noise":2},"top_desc":"Banging/Pounding"},{"lat":40.695447,"lng":-73.794071,"n":515,"addr":"107-59 159 Street","boro":"Queens","cb":"12 QUEENS","subs":{"Noise - Street/Sidewalk":514,"Noise - Residential":1},"top_desc":"Loud Music/Party"},{"lat":40.707346,"lng":-73.939777,"n":509,"addr":"251 Bushwick Avenue","boro":"Brooklyn","cb":"01 BROOKLYN","subs":{"Noise - Commercial":462,"Noise - Street/Sidewalk":45,"Noise - Residential":2},"top_desc":"Loud Music/Party"},{"lat":40.812898,"lng":-73.922129,"n":504,"addr":"350 East  143 Street","boro":"Bronx","cb":"01 BRONX","subs":{"Noise - Street/Sidewalk":392,"Noise - Residential":90,"Noise - Vehicle":21,"Noise - Commercial":1},"top_desc":"Loud Music/Party"},{"lat":40.865881,"lng":-73.859612,"n":503,"addr":"2705 Colden Avenue","boro":"Bronx","cb":"11 BRONX","subs":{"Noise - Residential":501,"Noise - Street/Sidewalk":1,"Noise - Vehicle":1},"top_desc":"Banging/Pounding"},{"lat":40.830446,"lng":-73.898559,"n":500,"addr":"1272 Union Avenue","boro":"Bronx","cb":"03 BRONX","subs":{"Noise - Street/Sidewalk":331,"Noise - Residential":88,"Noise - Vehicle":33,"Noise - Commercial":48},"top_desc":"Loud Music/Party"},{"lat":40.818089,"lng":-73.844673,"n":499,"addr":"535 Havemeyer Avenue","boro":"Bronx","cb":"09 BRONX","subs":{"Noise - Residential":481,"Noise - Street/Sidewalk":13,"Noise":5},"top_desc":"Loud Music/Party"},{"lat":40.70442,"lng":-74.010192,"n":498,"addr":"58 Stone Street","boro":"Manhattan","cb":"01 MANHATTAN","subs":{"Noise - Street/Sidewalk":16,"Noise - Commercial":385,"Noise - Residential":97},"top_desc":"Loud Music/Party"},{"lat":40.795786,"lng":-73.948691,"n":494,"addr":"18 East  109 Street","boro":"Manhattan","cb":"11 MANHATTAN","subs":{"Noise - Street/Sidewalk":349,"Noise - Residential":93,"Noise - Vehicle":52},"top_desc":"Loud Music/Party"},{"lat":40.816283,"lng":-73.908098,"n":491,"addr":"665 Westchester Avenue","boro":"Bronx","cb":"01 BRONX","subs":{"Noise - Residential":482,"Noise":1,"Noise - Street/Sidewalk":6,"Noise - Vehicle":2},"top_desc":"Loud Music/Party"},{"lat":40.819213,"lng":-73.952865,"n":486,"addr":"512 West  135 Street","boro":"Manhattan","cb":"09 MANHATTAN","subs":{"Noise - Residential":137,"Noise - Street/Sidewalk":346,"Noise":1,"Noise - Vehicle":2},"top_desc":"Loud Music/Party"},{"lat":40.668483,"lng":-73.846887,"n":479,"addr":"88-12 151 Avenue","boro":"Queens","cb":"10 QUEENS","subs":{"Noise - Helicopter":475,"Noise - Residential":4},"top_desc":"Other"},{"lat":40.852297,"lng":-73.931581,"n":477,"addr":"1517 St Nicholas Avenue","boro":"Manhattan","cb":"12 MANHATTAN","subs":{"Noise - Commercial":210,"Noise - Street/Sidewalk":236,"Noise - Residential":9,"Noise - Vehicle":22},"top_desc":"Loud Music/Party"},{"lat":40.832526,"lng":-73.876265,"n":473,"addr":"1340 Stratford Avenue","boro":"Bronx","cb":"09 BRONX","subs":{"Noise - Residential":470,"Noise - Street/Sidewalk":2,"Noise":1},"top_desc":"Banging/Pounding"},{"lat":40.697959,"lng":-73.936973,"n":472,"addr":"895 Broadway","boro":"Brooklyn","cb":"04 BROOKLYN","subs":{"Noise - Commercial":387,"Noise - Residential":22,"Noise - Vehicle":14,"Noise - Street/Sidewalk":46,"Noise":3},"top_desc":"Loud Music/Party"},{"lat":40.601083,"lng":-73.756296,"n":472,"addr":"22-25 New Haven Avenue","boro":"Queens","cb":"14 QUEENS","subs":{"Noise - Residential":468,"Noise - Street/Sidewalk":2,"Noise - Vehicle":2},"top_desc":"Loud Music/Party"},{"lat":40.591363,"lng":-73.967533,"n":470,"addr":"2411 East    3 Street","boro":"Brooklyn","cb":"15 BROOKLYN","subs":{"Noise - Residential":465,"Noise - Street/Sidewalk":4,"Noise":1},"top_desc":"Banging/Pounding"},{"lat":40.695482,"lng":-73.980648,"n":466,"addr":"85 Navy Walk","boro":"Brooklyn","cb":"02 BROOKLYN","subs":{"Noise - Residential":366,"Noise - Street/Sidewalk":91,"Noise - Vehicle":2,"Noise":7},"top_desc":"Loud Music/Party"},{"lat":40.60677,"lng":-73.960826,"n":462,"addr":"1745 East   12 Street","boro":"Brooklyn","cb":"15 BROOKLYN","subs":{"Noise - Residential":446,"Noise - Street/Sidewalk":10,"Noise":6},"top_desc":"Loud Talking"},{"lat":40.852728,"lng":-73.902018,"n":457,"addr":"2072 Anthony Avenue","boro":"Bronx","cb":"05 BRONX","subs":{"Noise - Street/Sidewalk":49,"Noise - Residential":408},"top_desc":"Loud Music/Party"},{"lat":40.725514,"lng":-73.850931,"n":450,"addr":"102-30 Queens Boulevard","boro":"Queens","cb":"06 QUEENS","subs":{"Noise - Residential":449,"Noise":1},"top_desc":"Banging/Pounding"},{"lat":40.69651,"lng":-73.905961,"n":447,"addr":"Weirfield Street","boro":"Brooklyn","cb":"04 BROOKLYN","subs":{"Noise - Vehicle":95,"Noise - Street/Sidewalk":342,"Noise - Residential":6,"Noise - Commercial":2,"Noise":2},"top_desc":"Loud Music/Party"},{"lat":40.660006,"lng":-73.960974,"n":446,"addr":"2100 Beekman Place","boro":"Brooklyn","cb":"09 BROOKLYN","subs":{"Noise - Street/Sidewalk":249,"Noise - Residential":135,"Noise - Commercial":14,"Noise - Vehicle":44,"Noise":4},"top_desc":"Loud Music/Party"},{"lat":40.609866,"lng":-74.128883,"n":445,"addr":"91 Quinlan Avenue","boro":"Staten Island","cb":"01 STATEN ISLAND","subs":{"Noise - Residential":440,"Noise - Street/Sidewalk":2,"Noise - Vehicle":2,"Noise":1},"top_desc":"Loud Talking"},{"lat":40.834464,"lng":-73.92086,"n":444,"addr":"1165 Gerard Avenue","boro":"Bronx","cb":"04 BRONX","subs":{"Noise - Street/Sidewalk":329,"Noise - Residential":16,"Noise - Vehicle":91,"Noise - Commercial":7,"Noise":1},"top_desc":"Loud Music/Party"},{"lat":40.592098,"lng":-73.787819,"n":438,"addr":"57-15 Shore Front Parkway","boro":"Queens","cb":"14 QUEENS","subs":{"Noise - Residential":382,"Noise - Street/Sidewalk":55,"Noise":1},"top_desc":"Loud Music/Party"},{"lat":40.774955,"lng":-73.934176,"n":435,"addr":"3-04 27 Avenue","boro":"Queens","cb":"01 QUEENS","subs":{"Noise - Residential":302,"Noise - Street/Sidewalk":108,"Noise - Commercial":22,"Noise - Park":1,"Noise - Vehicle":2},"top_desc":"Loud Music/Party"},{"lat":40.847661,"lng":-73.914652,"n":434,"addr":"1669 Grand Avenue","boro":"Bronx","cb":"05 BRONX","subs":{"Noise - Residential":427,"Noise - Street/Sidewalk":6,"Noise - Vehicle":1},"top_desc":"Banging/Pounding"},{"lat":40.844173,"lng":-73.939561,"n":433,"addr":"647 West  172 Street","boro":"Manhattan","cb":"12 MANHATTAN","subs":{"Noise - Residential":109,"Noise - Commercial":1,"Noise - Vehicle":75,"Noise":10,"Noise - Street/Sidewalk":237,"Noise - Helicopter":1},"top_desc":"Loud Music/Party"},{"lat":40.632596,"lng":-73.888338,"n":431,"addr":"2085 Rockaway Parkway","boro":"Brooklyn","cb":"18 BROOKLYN","subs":{"Noise - Residential":405,"Noise - Street/Sidewalk":21,"Noise":5},"top_desc":"Loud Music/Party"},{"lat":40.694626,"lng":-73.793509,"n":431,"addr":"108-32 159 Street","boro":"Queens","cb":"12 QUEENS","subs":{"Noise - Residential":15,"Noise - Street/Sidewalk":413,"Noise - Park":2,"Noise - Vehicle":1},"top_desc":"Loud Music/Party"},{"lat":40.697529,"lng":-73.994786,"n":430,"addr":"130 Hicks Street","boro":"Brooklyn","cb":"02 BROOKLYN","subs":{"Noise - Helicopter":423,"Noise":1,"Noise - Vehicle":4,"Noise - Street/Sidewalk":2},"top_desc":"Other"},{"lat":40.822927,"lng":-73.952998,"n":421,"addr":"3428 Broadway","boro":"Manhattan","cb":"09 MANHATTAN","subs":{"Noise - Commercial":382,"Noise - Residential":25,"Noise - Street/Sidewalk":14},"top_desc":"Loud Music/Party"},{"lat":40.699419,"lng":-73.938517,"n":420,"addr":"12 Park Street","boro":"Brooklyn","cb":"04 BROOKLYN","subs":{"Noise - Commercial":312,"Noise - Residential":86,"Noise - Street/Sidewalk":21,"Noise":1},"top_desc":"Loud Music/Party"},{"lat":40.853974,"lng":-73.914806,"n":420,"addr":"150 West Burnside Avenue","boro":"Bronx","cb":"05 BRONX","subs":{"Noise - Street/Sidewalk":392,"Noise - Vehicle":14,"Noise - Commercial":3,"Noise":5,"Noise - Residential":6},"top_desc":"Loud Music/Party"},{"lat":40.700096,"lng":-73.930389,"n":419,"addr":"136 Jefferson Street","boro":"Brooklyn","cb":"04 BROOKLYN","subs":{"Noise":415,"Noise - Residential":3,"Noise - Vehicle":1},"top_desc":"Noise, Barking Dog (NR5)"},{"lat":40.669309,"lng":-73.850057,"n":419,"addr":"149-22 85 Street","boro":"Queens","cb":"10 QUEENS","subs":{"Noise - Helicopter":407,"Noise - Residential":6,"Noise - Street/Sidewalk":6},"top_desc":"Other"},{"lat":40.747497,"lng":-73.876916,"n":413,"addr":"89-21 Elmhurst Avenue","boro":"Queens","cb":"04 QUEENS","subs":{"Noise - Residential":16,"Noise - Street/Sidewalk":328,"Noise - Vehicle":67,"Noise":2},"top_desc":"Loud Music/Party"},{"lat":40.859879,"lng":-73.931126,"n":409,"addr":"4565 Broadway","boro":"Manhattan","cb":"12 MANHATTAN","subs":{"Noise - Residential":78,"Noise - Park":297,"Noise - Vehicle":5,"Noise - Street/Sidewalk":27,"Noise - Commercial":2},"top_desc":"Loud Music/Party"},{"lat":40.839112,"lng":-73.914815,"n":409,"addr":"134 East  170 Street","boro":"Bronx","cb":"04 BRONX","subs":{"Noise - Commercial":400,"Noise - Street/Sidewalk":3,"Noise - Residential":5,"Noise":1},"top_desc":"Loud Music/Party"},{"lat":40.661835,"lng":-73.920933,"n":406,"addr":"214 Rockaway Parkway","boro":"Brooklyn","cb":"17 BROOKLYN","subs":{"Noise - Residential":403,"Noise":2,"Noise - Street/Sidewalk":1},"top_desc":"Banging/Pounding"},{"lat":40.665153,"lng":-73.953735,"n":403,"addr":"332 Rogers Avenue","boro":"Brooklyn","cb":"09 BROOKLYN","subs":{"Noise - Residential":402,"Noise - Vehicle":1},"top_desc":"Banging/Pounding"},{"lat":40.763703,"lng":-73.937318,"n":401,"addr":"34-15 12 Street","boro":"Queens","cb":"01 QUEENS","subs":{"Noise - Residential":395,"Noise - Street/Sidewalk":5,"Noise":1},"top_desc":"Banging/Pounding"},{"lat":40.745117,"lng":-73.984505,"n":399,"addr":"30 East   30 Street","boro":"Manhattan","cb":"05 MANHATTAN","subs":{"Noise - Street/Sidewalk":365,"Noise - Residential":13,"Noise":3,"Noise - Vehicle":15,"Noise - Commercial":3},"top_desc":"Loud Music/Party"},{"lat":40.859824,"lng":-73.900316,"n":399,"addr":"113 East 184 Street","boro":"Bronx","cb":"05 BRONX","subs":{"Noise - Street/Sidewalk":5,"Noise - Residential":393,"Noise":1},"top_desc":"Loud Music/Party"},{"lat":40.693968,"lng":-73.792947,"n":398,"addr":"159-02 109 Avenue","boro":"Queens","cb":"12 QUEENS","subs":{"Noise - Street/Sidewalk":389,"Noise - Residential":9},"top_desc":"Loud Music/Party"},{"lat":40.865384,"lng":-73.892472,"n":396,"addr":"2645 Briggs Avenue","boro":"Bronx","cb":"07 BRONX","subs":{"Noise - Commercial":279,"Noise - Street/Sidewalk":59,"Noise - Residential":23,"Noise - Vehicle":35},"top_desc":"Loud Music/Party"},{"lat":40.776397,"lng":-73.980433,"n":395,"addr":"117 West   70 Street","boro":"Manhattan","cb":"07 MANHATTAN","subs":{"Noise - Helicopter":338,"Noise - Vehicle":4,"Noise - Residential":30,"Noise":3,"Noise - Street/Sidewalk":20},"top_desc":"Other"},{"lat":40.815711,"lng":-73.906537,"n":395,"addr":"764 East  152 Street","boro":"Bronx","cb":"01 BRONX","subs":{"Noise - Street/Sidewalk":388,"Noise - Vehicle":1,"Noise - Residential":6},"top_desc":"Loud Music/Party"},{"lat":40.66332,"lng":-73.897523,"n":393,"addr":"511 Williams Avenue","boro":"Brooklyn","cb":"05 BROOKLYN","subs":{"Noise - Residential":392,"Noise - Street/Sidewalk":1},"top_desc":"Banging/Pounding"},{"lat":40.704364,"lng":-74.010322,"n":390,"addr":"47 Stone Street","boro":"Manhattan","cb":"01 MANHATTAN","subs":{"Noise - Commercial":362,"Noise - Residential":8,"Noise":8,"Noise - Vehicle":4,"Noise - Street/Sidewalk":8},"top_desc":"Loud Music/Party"},{"lat":40.814657,"lng":-73.923957,"n":390,"addr":"300 East  143 Street","boro":"Bronx","cb":"01 BRONX","subs":{"Noise - Residential":345,"Noise":45},"top_desc":"Loud Music/Party"},{"lat":40.587187,"lng":-73.813569,"n":390,"addr":"88-12 Rockaway Beach Boulevard","boro":"Queens","cb":"14 QUEENS","subs":{"Noise - Commercial":362,"Noise - Vehicle":4,"Noise - Street/Sidewalk":20,"Noise - Residential":4},"top_desc":"Loud Music/Party"},{"lat":40.837518,"lng":-73.867075,"n":387,"addr":"1800 Archer Street","boro":"Bronx","cb":"09 BRONX","subs":{"Noise - Street/Sidewalk":53,"Noise - Vehicle":39,"Noise - Residential":54,"Noise - Commercial":241},"top_desc":"Loud Music/Party"},{"lat":40.774703,"lng":-73.978367,"n":387,"addr":"25 West   69 Street","boro":"Manhattan","cb":"07 MANHATTAN","subs":{"Noise - Helicopter":370,"Noise - Residential":13,"Noise":4},"top_desc":"Other"},{"lat":40.877434,"lng":-73.88169,"n":387,"addr":"3230 Steuben Avenue","boro":"Bronx","cb":"07 BRONX","subs":{"Noise - Residential":379,"Noise":2,"Noise - Street/Sidewalk":6},"top_desc":"Banging/Pounding"},{"lat":40.866514,"lng":-73.928435,"n":380,"addr":"261 Dyckman Street","boro":"Manhattan","cb":"12 MANHATTAN","subs":{"Noise - Street/Sidewalk":150,"Noise - Commercial":210,"Noise - Vehicle":17,"Noise - Residential":2,"Noise":1},"top_desc":"Loud Music/Party"},{"lat":40.772893,"lng":-73.92542,"n":379,"addr":"26-38 21 Street","boro":"Queens","cb":"01 QUEENS","subs":{"Noise - Residential":376,"Noise - Vehicle":3},"top_desc":"Loud Talking"},{"lat":40.892381,"lng":-73.859205,"n":379,"addr":"672 East  231 Street","boro":"Bronx","cb":"12 BRONX","subs":{"Noise - Residential":367,"Noise - Street/Sidewalk":9,"Noise - Vehicle":2,"Noise":1},"top_desc":"Loud Music/Party"},{"lat":40.682509,"lng":-73.973885,"n":378,"addr":"18 6 Avenue","boro":"Brooklyn","cb":"02 BROOKLYN","subs":{"Noise - Residential":132,"Noise - Commercial":227,"Noise - Vehicle":10,"Noise":5,"Noise - Helicopter":4},"top_desc":"Loud Music/Party"},{"lat":40.876457,"lng":-73.912847,"n":378,"addr":"135 Terrace View Avenue","boro":"Bronx","cb":"08 BRONX","subs":{"Noise - Street/Sidewalk":306,"Noise - Vehicle":19,"Noise - Residential":29,"Noise - Commercial":13,"Noise":11},"top_desc":"Loud Music/Party"},{"lat":40.838741,"lng":-73.917992,"n":378,"addr":"22 Marcy Place","boro":"Bronx","cb":"04 BRONX","subs":{"Noise - Residential":175,"Noise - Street/Sidewalk":192,"Noise - Vehicle":11},"top_desc":"Loud Music/Party"},{"lat":40.792135,"lng":-73.971822,"n":377,"addr":"201 West   93 Street","boro":"Manhattan","cb":"07 MANHATTAN","subs":{"Noise - Residential":125,"Noise - Street/Sidewalk":65,"Noise":61,"Noise - Helicopter":109,"Noise - Commercial":10,"Noise - Vehicle":7},"top_desc":"Other"},{"lat":40.659994,"lng":-73.9614,"n":377,"addr":"2111 Beekman Place","boro":"Brooklyn","cb":"09 BROOKLYN","subs":{"Noise - Residential":107,"Noise - Street/Sidewalk":205,"Noise - Vehicle":58,"Noise":7},"top_desc":"Loud Music/Party"},{"lat":40.780626,"lng":-73.94641,"n":376,"addr":"405 East   92 Street","boro":"Manhattan","cb":"08 MANHATTAN","subs":{"Noise - Street/Sidewalk":66,"Noise - Residential":285,"Noise - Helicopter":3,"Noise":16,"Noise - Vehicle":6},"top_desc":"Loud Music/Party"},{"lat":40.722104,"lng":-73.988175,"n":375,"addr":"190 Orchard Street","boro":"Manhattan","cb":"03 MANHATTAN","subs":{"Noise - Commercial":248,"Noise - Residential":45,"Noise - Street/Sidewalk":61,"Noise - Vehicle":6,"Noise":15},"top_desc":"Banging/Pounding"},{"lat":40.695112,"lng":-73.793856,"n":375,"addr":"108-09 159 Street","boro":"Queens","cb":"12 QUEENS","subs":{"Noise - Street/Sidewalk":373,"Noise":1,"Noise - Residential":1},"top_desc":"Loud Music/Party"},{"lat":40.730099,"lng":-73.810908,"n":374,"addr":"71-01 Parsons Boulevard","boro":"Queens","cb":"08 QUEENS","subs":{"Noise":1,"Noise - Vehicle":352,"Noise - Residential":21},"top_desc":"Car/Truck Horn"},{"lat":40.662323,"lng":-73.92145,"n":371,"addr":"181 Rockaway Parkway","boro":"Brooklyn","cb":"17 BROOKLYN","subs":{"Noise - Residential":357,"Noise - Street/Sidewalk":9,"Noise":4,"Noise - Vehicle":1},"top_desc":"Loud Music/Party"},{"lat":40.638173,"lng":-73.945301,"n":370,"addr":"1415 New York Avenue","boro":"Brooklyn","cb":"17 BROOKLYN","subs":{"Noise - Residential":343,"Noise - Street/Sidewalk":26,"Noise - Commercial":1},"top_desc":"Banging/Pounding"},{"lat":40.669087,"lng":-73.84623,"n":370,"addr":"150-32 89 Street","boro":"Queens","cb":"10 QUEENS","subs":{"Noise - Helicopter":365,"Noise - Street/Sidewalk":1,"Noise - Residential":4},"top_desc":"Other"},{"lat":40.642949,"lng":-73.985676,"n":370,"addr":"1239 36 Street","boro":"Brooklyn","cb":"12 BROOKLYN","subs":{"Noise - Residential":357,"Noise - Street/Sidewalk":9,"Noise":1,"Noise - Vehicle":3},"top_desc":"Loud Music/Party"},{"lat":40.869387,"lng":-73.902134,"n":369,"addr":"2701 Webb Avenue","boro":"Bronx","cb":"08 BRONX","subs":{"Noise - Residential":179,"Noise - Street/Sidewalk":172,"Noise - Vehicle":18},"top_desc":"Loud Music/Party"},{"lat":40.751962,"lng":-73.820567,"n":368,"addr":"45-10 Kissena Boulevard","boro":"Queens","cb":"07 QUEENS","subs":{"Noise - Residential":367,"Noise":1},"top_desc":"Banging/Pounding"},{"lat":40.825731,"lng":-73.92198,"n":367,"addr":"185 East  159 Street","boro":"Bronx","cb":"04 BRONX","subs":{"Noise - Residential":347,"Noise - Street/Sidewalk":16,"Noise - Vehicle":1,"Noise - Commercial":1,"Noise":2},"top_desc":"Loud Music/Party"},{"lat":40.860564,"lng":-73.900481,"n":366,"addr":"2396 Morris Avenue","boro":"Bronx","cb":"05 BRONX","subs":{"Noise - Residential":239,"Noise - Street/Sidewalk":106,"Noise - Vehicle":21},"top_desc":"Banging/Pounding"},{"lat":40.720991,"lng":-73.987895,"n":365,"addr":"157 Ludlow Street","boro":"Manhattan","cb":"03 MANHATTAN","subs":{"Noise - Commercial":222,"Noise - Vehicle":24,"Noise - Street/Sidewalk":88,"Noise - Residential":11,"Noise":20},"top_desc":"Loud Music/Party"},{"lat":40.830781,"lng":-73.918671,"n":365,"addr":"1060 Sheridan Avenue","boro":"Bronx","cb":"04 BRONX","subs":{"Noise - Residential":359,"Noise - Commercial":2,"Noise - Street/Sidewalk":2,"Noise - Vehicle":2},"top_desc":"Banging/Pounding"},{"lat":40.869399,"lng":-73.89321,"n":364,"addr":"2754 Creston Avenue","boro":"Bronx","cb":"07 BRONX","subs":{"Noise - Residential":349,"Noise - Vehicle":8,"Noise - Street/Sidewalk":5,"Noise":2},"top_desc":"Banging/Pounding"},{"lat":40.830121,"lng":-73.917005,"n":361,"addr":"1046 Grant Avenue","boro":"Bronx","cb":"04 BRONX","subs":{"Noise - Vehicle":26,"Noise - Residential":296,"Noise - Street/Sidewalk":38,"Noise":1},"top_desc":"Banging/Pounding"},{"lat":40.838613,"lng":-73.942146,"n":358,"addr":"610 West  164 Street","boro":"Manhattan","cb":"12 MANHATTAN","subs":{"Noise - Residential":106,"Noise - Street/Sidewalk":246,"Noise - Vehicle":4,"Noise - Helicopter":1,"Noise":1},"top_desc":"Loud Music/Party"},{"lat":40.837988,"lng":-73.916023,"n":357,"addr":"130 Marcy Place","boro":"Bronx","cb":"04 BRONX","subs":{"Noise - Residential":108,"Noise - Vehicle":9,"Noise - Street/Sidewalk":238,"Noise - Commercial":2},"top_desc":"Loud Music/Party"},{"lat":40.67467,"lng":-73.864077,"n":356,"addr":"642 Eldert Lane","boro":"Brooklyn","cb":"05 BROOKLYN","subs":{"Noise - Street/Sidewalk":242,"Noise - Vehicle":80,"Noise - Residential":25,"Noise":8,"Noise - Commercial":1},"top_desc":"Loud Talking"},{"lat":40.645844,"lng":-73.88171,"n":356,"addr":"1420 Freeport Loop","boro":"Brooklyn","cb":"05 BROOKLYN","subs":{"Noise - Residential":342,"Noise":14},"top_desc":"Banging/Pounding"},{"lat":40.62206,"lng":-73.955696,"n":355,"addr":"1641 Ocean Avenue","boro":"Brooklyn","cb":"14 BROOKLYN","subs":{"Noise - Residential":349,"Noise - Street/Sidewalk":2,"Noise":2,"Noise - Vehicle":2},"top_desc":"Banging/Pounding"},{"lat":40.827124,"lng":-73.94288,"n":354,"addr":"795 St Nicholas Avenue","boro":"Manhattan","cb":"09 MANHATTAN","subs":{"Noise - Residential":344,"Noise - Vehicle":3,"Noise - Helicopter":1,"Noise - Street/Sidewalk":4,"Noise":2},"top_desc":"Banging/Pounding"},{"lat":40.743016,"lng":-73.979522,"n":354,"addr":"208 East   30 Street","boro":"Manhattan","cb":"06 MANHATTAN","subs":{"Noise - Helicopter":337,"Noise - Street/Sidewalk":1,"Noise - Vehicle":1,"Noise - Residential":9,"Noise":6},"top_desc":"Other"},{"lat":40.836349,"lng":-73.887263,"n":354,"addr":"1705 Hoe Avenue","boro":"Bronx","cb":"03 BRONX","subs":{"Noise - Vehicle":3,"Noise - Residential":250,"Noise - Street/Sidewalk":100,"Noise":1},"top_desc":"Loud Music/Party"},{"lat":40.666856,"lng":-73.842474,"n":349,"addr":"90-55 Shore Parkway","boro":"Queens","cb":"10 QUEENS","subs":{"Noise - Helicopter":349},"top_desc":"Other"},{"lat":40.708406,"lng":-73.961499,"n":349,"addr":"180 South    9 Street","boro":"Brooklyn","cb":"01 BROOKLYN","subs":{"Noise - Residential":335,"Noise - Vehicle":2,"Noise - Street/Sidewalk":3,"Noise":9},"top_desc":"Banging/Pounding"},{"lat":40.864377,"lng":-73.92053,"n":348,"addr":"109 Post Avenue","boro":"Manhattan","cb":"12 MANHATTAN","subs":{"Noise - Street/Sidewalk":179,"Noise - Vehicle":41,"Noise - Residential":127,"Noise":1},"top_desc":"Loud Music/Party"},{"lat":40.710698,"lng":-73.957557,"n":348,"addr":"252 South    3 Street","boro":"Brooklyn","cb":"01 BROOKLYN","subs":{"Noise - Street/Sidewalk":286,"Noise - Residential":54,"Noise":1,"Noise - Commercial":4,"Noise - Vehicle":3},"top_desc":"Loud Music/Party"},{"lat":40.79449,"lng":-73.948851,"n":347,"addr":"1595 Madison Avenue","boro":"Manhattan","cb":"11 MANHATTAN","subs":{"Noise - Residential":229,"Noise - Street/Sidewalk":106,"Noise - Vehicle":2,"Noise - House of Worship":1,"Noise":6,"Noise - Commercial":3},"top_desc":"Loud Music/Party"},{"lat":40.656568,"lng":-73.903492,"n":346,"addr":"879 Mother Gaston Boulevard","boro":"Brooklyn","cb":"16 BROOKLYN","subs":{"Noise - Residential":69,"Noise - Street/Sidewalk":272,"Noise":1,"Noise - Vehicle":2,"Noise - Commercial":2},"top_desc":"Loud Music/Party"},{"lat":40.728968,"lng":-73.988536,"n":339,"addr":"25 St Marks Place","boro":"Manhattan","cb":"03 MANHATTAN","subs":{"Noise - Street/Sidewalk":258,"Noise":7,"Noise - Commercial":25,"Noise - Residential":46,"Noise - Vehicle":3},"top_desc":"Loud Music/Party"},{"lat":40.818137,"lng":-73.938653,"n":338,"addr":"108 West 141 Street","boro":"Manhattan","cb":"10 MANHATTAN","subs":{"Noise - Street/Sidewalk":61,"Noise - Residential":275,"Noise":2},"top_desc":"Loud Music/Party"},{"lat":40.775568,"lng":-73.97846,"n":336,"addr":"46 West   70 Street","boro":"Manhattan","cb":"07 MANHATTAN","subs":{"Noise - Helicopter":333,"Noise - Vehicle":1,"Noise - Residential":1,"Noise":1},"top_desc":"Other"},{"lat":40.746626,"lng":-73.886595,"n":334,"addr":"40-40 79 Street","boro":"Queens","cb":"04 QUEENS","subs":{"Noise - Residential":332,"Noise - Street/Sidewalk":2},"top_desc":"Loud Music/Party"},{"lat":40.701346,"lng":-73.982705,"n":334,"addr":"202 York Street","boro":"Brooklyn","cb":"02 BROOKLYN","subs":{"Noise - Residential":277,"Noise - Street/Sidewalk":48,"Noise":7,"Noise - Vehicle":1,"Noise - Commercial":1},"top_desc":"Loud Music/Party"},{"lat":40.825155,"lng":-73.949497,"n":333,"addr":"545 West  144 Street","boro":"Manhattan","cb":"09 MANHATTAN","subs":{"Noise - Street/Sidewalk":121,"Noise - Residential":201,"Noise":6,"Noise - Vehicle":5},"top_desc":"Loud Music/Party"},{"lat":40.829472,"lng":-73.896519,"n":332,"addr":"1360 Lyman Place","boro":"Bronx","cb":"03 BRONX","subs":{"Noise - Residential":44,"Noise - Street/Sidewalk":288},"top_desc":"Loud Music/Party"},{"lat":40.826805,"lng":-73.935697,"n":332,"addr":"210P West  153 Street","boro":"Manhattan","cb":"10 MANHATTAN","subs":{"Noise - Residential":280,"Noise":50,"Noise - Vehicle":1,"Noise - Street/Sidewalk":1},"top_desc":"Loud Music/Party"},{"lat":40.84575,"lng":-73.924135,"n":332,"addr":"1501 Undercliff Avenue","boro":"Bronx","cb":"05 BRONX","subs":{"Noise - Residential":22,"Noise - Street/Sidewalk":280,"Noise - Vehicle":30},"top_desc":"Loud Music/Party"},{"lat":40.843697,"lng":-73.924398,"n":331,"addr":"1435 University Avenue","boro":"Bronx","cb":"04 BRONX","subs":{"Noise - Residential":109,"Noise - Vehicle":201,"Noise - Street/Sidewalk":21},"top_desc":"Car/Truck Music"},{"lat":40.722803,"lng":-73.989595,"n":331,"addr":"247 Eldridge Street","boro":"Manhattan","cb":"03 MANHATTAN","subs":{"Noise - Commercial":264,"Noise - Street/Sidewalk":41,"Noise - Residential":22,"Noise - Vehicle":4},"top_desc":"Loud Music/Party"},{"lat":40.850724,"lng":-73.933361,"n":330,"addr":"615 West  183 Street","boro":"Manhattan","cb":"12 MANHATTAN","subs":{"Noise - Residential":325,"Noise - Vehicle":4,"Noise - Street/Sidewalk":1},"top_desc":"Loud Music/Party"},{"lat":40.835099,"lng":-73.925001,"n":329,"addr":"1122 Anderson Avenue","boro":"Bronx","cb":"04 BRONX","subs":{"Noise - Vehicle":164,"Noise - Residential":93,"Noise - Street/Sidewalk":65,"Noise - Commercial":2,"Noise":5},"top_desc":"Car/Truck Music"},{"lat":40.674641,"lng":-73.81961,"n":329,"addr":"115-88 Lefferts Boulevard","boro":"Queens","cb":"10 QUEENS","subs":{"Noise - Commercial":312,"Noise - Street/Sidewalk":9,"Noise - Vehicle":7,"Noise - Residential":1},"top_desc":"Loud Music/Party"},{"lat":40.873698,"lng":-73.908149,"n":329,"addr":"49 West  225 Street","boro":"Bronx","cb":"08 BRONX","subs":{"Noise - Residential":319,"Noise":1,"Noise - Street/Sidewalk":9},"top_desc":"Banging/Pounding"},{"lat":40.876419,"lng":-73.908493,"n":325,"addr":"130 West  228 Street","boro":"Bronx","cb":"08 BRONX","subs":{"Noise - Vehicle":37,"Noise - Street/Sidewalk":187,"Noise - Residential":83,"Noise - Commercial":18},"top_desc":"Loud Music/Party"},{"lat":40.695062,"lng":-73.997987,"n":325,"addr":"8 Remsen Street","boro":"Brooklyn","cb":"02 BROOKLYN","subs":{"Noise - Vehicle":103,"Noise - Street/Sidewalk":221,"Noise - Residential":1},"top_desc":"Loud Music/Party"},{"lat":40.829655,"lng":-73.878475,"n":325,"addr":"1233 Boynton Avenue","boro":"Bronx","cb":"09 BRONX","subs":{"Noise - Residential":285,"Noise - Street/Sidewalk":38,"Noise - Vehicle":2},"top_desc":"Loud Music/Party"},{"lat":40.776368,"lng":-73.978439,"n":325,"addr":"56 West   71 Street","boro":"Manhattan","cb":"07 MANHATTAN","subs":{"Noise - Helicopter":299,"Noise - Street/Sidewalk":6,"Noise":14,"Noise - Vehicle":6},"top_desc":"Other"},{"lat":40.802758,"lng":-73.955453,"n":325,"addr":"265 West  114 Street","boro":"Manhattan","cb":"10 MANHATTAN","subs":{"Noise - Residential":163,"Noise - Street/Sidewalk":156,"Noise - Vehicle":2,"Noise":4},"top_desc":"Loud Music/Party"},{"lat":40.826417,"lng":-73.926079,"n":325,"addr":"90 East  158 Street","boro":"Bronx","cb":"04 BRONX","subs":{"Noise - Street/Sidewalk":280,"Noise - Vehicle":34,"Noise - Residential":11},"top_desc":"Loud Music/Party"},{"lat":40.663071,"lng":-73.897481,"n":324,"addr":"526 Williams Avenue","boro":"Brooklyn","cb":"05 BROOKLYN","subs":{"Noise - Residential":320,"Noise - Street/Sidewalk":4},"top_desc":"Banging/Pounding"},{"lat":40.764939,"lng":-73.917234,"n":323,"addr":"36-08 30 Avenue","boro":"Queens","cb":"01 QUEENS","subs":{"Noise - Street/Sidewalk":12,"Noise - Commercial":291,"Noise - Residential":19,"Noise - Vehicle":1},"top_desc":"Loud Music/Party"},{"lat":40.638466,"lng":-73.942457,"n":322,"addr":"1402 Brooklyn Avenue","boro":"Brooklyn","cb":"17 BROOKLYN","subs":{"Noise - Vehicle":3,"Noise - Residential":317,"Noise - Street/Sidewalk":2},"top_desc":"Banging/Pounding"},{"lat":40.858289,"lng":-73.890394,"n":321,"addr":"480 East  188 Street","boro":"Bronx","cb":"06 BRONX","subs":{"Noise - Residential":315,"Noise":3,"Noise - Street/Sidewalk":3},"top_desc":"Banging/Pounding"},{"lat":40.821684,"lng":-73.900785,"n":317,"addr":"920 Prospect Avenue","boro":"Bronx","cb":"02 BRONX","subs":{"Noise - Street/Sidewalk":157,"Noise - Residential":151,"Noise - House of Worship":1,"Noise":3,"Noise - Helicopter":1,"Noise - Vehicle":4},"top_desc":"Loud Music/Party"},{"lat":40.836421,"lng":-73.887217,"n":316,"addr":"1711 Hoe Avenue","boro":"Bronx","cb":"03 BRONX","subs":{"Noise - Street/Sidewalk":305,"Noise - Residential":11},"top_desc":"Loud Music/Party"},{"lat":40.866609,"lng":-73.927477,"n":315,"addr":"11 Seaman Avenue","boro":"Manhattan","cb":"12 MANHATTAN","subs":{"Noise - Residential":122,"Noise":19,"Noise - Vehicle":119,"Noise - Street/Sidewalk":49,"Noise - Commercial":6},"top_desc":"Banging/Pounding"},{"lat":40.837926,"lng":-73.90633,"n":314,"addr":"1458 Webster Avenue","boro":"Bronx","cb":"03 BRONX","subs":{"Noise - Residential":269,"Noise":1,"Noise - Street/Sidewalk":25,"Noise - Vehicle":17,"Noise - Commercial":2},"top_desc":"Loud Music/Party"},{"lat":40.701371,"lng":-73.905242,"n":312,"addr":"811 Seneca Avenue","boro":"Queens","cb":"05 QUEENS","subs":{"Noise - Commercial":302,"Noise - Residential":4,"Noise - Street/Sidewalk":3,"Noise":3},"top_desc":"Loud Music/Party"},{"lat":40.70019,"lng":-73.922119,"n":312,"addr":"199 Stockholm Street","boro":"Brooklyn","cb":"04 BROOKLYN","subs":{"Noise - Residential":80,"Noise - Street/Sidewalk":220,"Noise - Vehicle":11,"Noise":1},"top_desc":"Loud Music/Party"},{"lat":40.793705,"lng":-73.976655,"n":312,"addr":"202 Riverside Drive","boro":"Manhattan","cb":"07 MANHATTAN","subs":{"Noise - Street/Sidewalk":2,"Noise - Helicopter":308,"Noise - Residential":2},"top_desc":"Other"},{"lat":40.8967,"lng":-73.855539,"n":311,"addr":"4340 White Plains Road","boro":"Bronx","cb":"12 BRONX","subs":{"Noise - Commercial":309,"Noise - Street/Sidewalk":2},"top_desc":"Loud Talking"},{"lat":40.814391,"lng":-73.94436,"n":310,"addr":"2271 7 Avenue","boro":"Manhattan","cb":"10 MANHATTAN","subs":{"Noise - Commercial":238,"Noise - Street/Sidewalk":48,"Noise - Residential":21,"Noise - Vehicle":2,"Noise":1},"top_desc":"Loud Music/Party"},{"lat":40.656137,"lng":-73.7446,"n":308,"addr":"239-14 147 Road","boro":"Queens","cb":"13 QUEENS","subs":{"Noise - Residential":305,"Noise - Street/Sidewalk":3},"top_desc":"Loud Music/Party"},{"lat":40.705286,"lng":-73.807634,"n":306,"addr":"148-48 88 Avenue","boro":"Queens","cb":"12 QUEENS","subs":{"Noise - Residential":303,"Noise - Vehicle":1,"Noise - Street/Sidewalk":1,"Noise":1},"top_desc":"Banging/Pounding"},{"lat":40.714015,"lng":-73.746722,"n":305,"addr":"99-06 212 Street","boro":"Queens","cb":"13 QUEENS","subs":{"Noise - Residential":286,"Noise - Street/Sidewalk":17,"Noise":2},"top_desc":"Loud Music/Party"},{"lat":40.853518,"lng":-73.930671,"n":304,"addr":"1555 St Nicholas Avenue","boro":"Manhattan","cb":"12 MANHATTAN","subs":{"Noise - Commercial":194,"Noise - Street/Sidewalk":56,"Noise - Vehicle":1,"Noise - Residential":53},"top_desc":"Loud Music/Party"},{"lat":40.65517,"lng":-73.954143,"n":303,"addr":"176 Clarkson Avenue","boro":"Brooklyn","cb":"17 BROOKLYN","subs":{"Noise - Vehicle":151,"Noise - Residential":83,"Noise - Street/Sidewalk":67,"Noise":2},"top_desc":"Car/Truck Music"},{"lat":40.826103,"lng":-73.951786,"n":303,"addr":"612 West  144 Street","boro":"Manhattan","cb":"09 MANHATTAN","subs":{"Noise":2,"Noise - Vehicle":12,"Noise - Street/Sidewalk":58,"Noise - Residential":230,"Noise - Commercial":1},"top_desc":"Loud Music/Party"},{"lat":40.65157,"lng":-73.918597,"n":303,"addr":"633 Remsen Avenue","boro":"Brooklyn","cb":"17 BROOKLYN","subs":{"Noise - Commercial":281,"Noise - Residential":13,"Noise - Street/Sidewalk":6,"Noise - Vehicle":2,"Noise":1},"top_desc":"Loud Music/Party"},{"lat":40.718851,"lng":-73.989214,"n":301,"addr":"95 Delancey Street","boro":"Manhattan","cb":"03 MANHATTAN","subs":{"Noise - Commercial":282,"Noise - Street/Sidewalk":4,"Noise - Vehicle":2,"Noise - Residential":13},"top_desc":"Loud Music/Party"},{"lat":40.802537,"lng":-73.950883,"n":300,"addr":"139 West  116 Street","boro":"Manhattan","cb":"10 MANHATTAN","subs":{"Noise - Residential":76,"Noise":1,"Noise - Street/Sidewalk":175,"Noise - Vehicle":6,"Noise - Commercial":42},"top_desc":"Loud Talking"},{"lat":40.785367,"lng":-73.972977,"n":300,"addr":"503 Columbus Avenue","boro":"Manhattan","cb":"07 MANHATTAN","subs":{"Noise - Commercial":276,"Noise - Residential":11,"Noise - Street/Sidewalk":6,"Noise":7},"top_desc":"Loud Music/Party"},{"lat":40.759358,"lng":-73.988843,"n":299,"addr":"301 West   45 Street","boro":"Manhattan","cb":"04 MANHATTAN","subs":{"Noise - Street/Sidewalk":223,"Noise":8,"Noise - Vehicle":52,"Noise - Residential":14,"Noise - Commercial":2},"top_desc":"Loud Talking"},{"lat":40.640925,"lng":-73.95822,"n":299,"addr":"538 East   21 Street","boro":"Brooklyn","cb":"14 BROOKLYN","subs":{"Noise - Residential":55,"Noise - Street/Sidewalk":121,"Noise - Vehicle":123},"top_desc":"Loud Music/Party"},{"lat":40.684133,"lng":-73.822104,"n":299,"addr":"107-06 120 Street","boro":"Queens","cb":"10 QUEENS","subs":{"Noise - Residential":278,"Noise - Vehicle":2,"Noise - Street/Sidewalk":10,"Noise":9},"top_desc":"Loud Music/Party"},{"lat":40.809202,"lng":-73.944453,"n":298,"addr":"341 Lenox Avenue","boro":"Manhattan","cb":"10 MANHATTAN","subs":{"Noise - Commercial":264,"Noise - Residential":10,"Noise - Street/Sidewalk":23,"Noise - Vehicle":1},"top_desc":"Loud Music/Party"},{"lat":40.70007,"lng":-73.987219,"n":298,"addr":"90 Sands Street","boro":"Brooklyn","cb":"02 BROOKLYN","subs":{"Noise - Residential":254,"Noise - Street/Sidewalk":2,"Noise":42},"top_desc":"Loud Music/Party"},{"lat":40.839105,"lng":-73.913541,"n":298,"addr":"1420 Grand Concourse","boro":"Bronx","cb":"04 BRONX","subs":{"Noise - Residential":176,"Noise - Street/Sidewalk":82,"Noise - Commercial":19,"Noise":1,"Noise - Vehicle":20},"top_desc":"Loud Music/Party"},{"lat":40.641163,"lng":-73.958253,"n":296,"addr":"525 East   21 Street","boro":"Brooklyn","cb":"14 BROOKLYN","subs":{"Noise - Residential":28,"Noise - Street/Sidewalk":262,"Noise - Vehicle":4,"Noise - Commercial":2},"top_desc":"Loud Music/Party"},{"lat":40.64831,"lng":-73.961899,"n":296,"addr":"50 East   19 Street","boro":"Brooklyn","cb":"14 BROOKLYN","subs":{"Noise - Residential":148,"Noise - Street/Sidewalk":95,"Noise - Vehicle":49,"Noise":4},"top_desc":"Banging/Pounding"},{"lat":40.623961,"lng":-73.956067,"n":296,"addr":"1576 Ocean Avenue","boro":"Brooklyn","cb":"14 BROOKLYN","subs":{"Noise - Residential":293,"Noise - Street/Sidewalk":2,"Noise - Commercial":1},"top_desc":"Banging/Pounding"},{"lat":40.656851,"lng":-73.903415,"n":295,"addr":"224 Hegeman Avenue","boro":"Brooklyn","cb":"16 BROOKLYN","subs":{"Noise - Residential":10,"Noise - Street/Sidewalk":267,"Noise - Commercial":18},"top_desc":"Loud Music/Party"},{"lat":40.667426,"lng":-73.843892,"n":294,"addr":"92-19 153 Avenue","boro":"Queens","cb":"10 QUEENS","subs":{"Noise - Helicopter":294},"top_desc":"Other"},{"lat":40.719427,"lng":-73.80891,"n":294,"addr":"80-22 Parsons Boulevard","boro":"Queens","cb":"08 QUEENS","subs":{"Noise - Residential":4,"Noise - Vehicle":288,"Noise - Street/Sidewalk":1,"Noise":1},"top_desc":"Car/Truck Horn"},{"lat":40.774583,"lng":-73.978086,"n":293,"addr":"22 West   69 Street","boro":"Manhattan","cb":"07 MANHATTAN","subs":{"Noise - Helicopter":288,"Noise":4,"Noise - Residential":1},"top_desc":"Other"},{"lat":40.751019,"lng":-73.891912,"n":293,"addr":"74-10 35 Avenue","boro":"Queens","cb":"03 QUEENS","subs":{"Noise - Residential":289,"Noise - Vehicle":1,"Noise - Street/Sidewalk":1,"Noise":2},"top_desc":"Loud Television"},{"lat":40.656695,"lng":-73.953105,"n":293,"addr":"611 Rogers Avenue","boro":"Brooklyn","cb":"09 BROOKLYN","subs":{"Noise - Residential":288,"Noise":3,"Noise - Street/Sidewalk":1,"Noise - Commercial":1},"top_desc":"Loud Music/Party"},{"lat":40.794804,"lng":-73.93627,"n":292,"addr":"2226A 1 Avenue","boro":"Manhattan","cb":"11 MANHATTAN","subs":{"Noise - Residential":40,"Noise - Commercial":248,"Noise - Street/Sidewalk":3,"Noise":1},"top_desc":"Loud Music/Party"},{"lat":40.664908,"lng":-73.84537,"n":292,"addr":"88-03 Shore Parkway","boro":"Queens","cb":"10 QUEENS","subs":{"Noise - Helicopter":292},"top_desc":"Other"},{"lat":40.640442,"lng":-73.963321,"n":291,"addr":"415 East   16 Street","boro":"Brooklyn","cb":"14 BROOKLYN","subs":{"Noise - Residential":265,"Noise - Street/Sidewalk":16,"Noise - Vehicle":5,"Noise":5},"top_desc":"Banging/Pounding"},{"lat":40.744284,"lng":-73.883958,"n":291,"addr":"42-25 Layton Street","boro":"Queens","cb":"04 QUEENS","subs":{"Noise - Residential":284,"Noise - Street/Sidewalk":6,"Noise":1},"top_desc":"Banging/Pounding"},{"lat":40.855329,"lng":-73.862913,"n":290,"addr":"2145 Matthews Avenue","boro":"Bronx","cb":"11 BRONX","subs":{"Noise - Residential":267,"Noise":8,"Noise - Helicopter":1,"Noise - Vehicle":6,"Noise - Street/Sidewalk":8},"top_desc":"Loud Music/Party"},{"lat":40.79295,"lng":-73.973748,"n":289,"addr":"250 West 93 Street","boro":"Manhattan","cb":"07 MANHATTAN","subs":{"Noise - Helicopter":289},"top_desc":"Other"},{"lat":40.776834,"lng":-73.981473,"n":288,"addr":"154 West   70 Street","boro":"Manhattan","cb":"07 MANHATTAN","subs":{"Noise - Helicopter":273,"Noise - Street/Sidewalk":2,"Noise":9,"Noise - Residential":4},"top_desc":"Other"},{"lat":40.514794,"lng":-74.248435,"n":288,"addr":"225 Ellis Street","boro":"Staten Island","cb":"03 STATEN ISLAND","subs":{"Noise - Residential":140,"Noise - Commercial":146,"Noise":2},"top_desc":"Loud Music/Party"},{"lat":40.837006,"lng":-73.886677,"n":288,"addr":"940 East  174 Street","boro":"Bronx","cb":"03 BRONX","subs":{"Noise - Street/Sidewalk":273,"Noise - Vehicle":1,"Noise - Residential":12,"Noise":1,"Noise - Commercial":1},"top_desc":"Loud Music/Party"},{"lat":40.814675,"lng":-73.916551,"n":288,"addr":"455 East  148 Street","boro":"Bronx","cb":"01 BRONX","subs":{"Noise - Residential":259,"Noise - Vehicle":10,"Noise - Street/Sidewalk":17,"Noise":2},"top_desc":"Loud Music/Party"},{"lat":40.860567,"lng":-73.906921,"n":284,"addr":"2291 University Avenue","boro":"Bronx","cb":"07 BRONX","subs":{"Noise - Residential":260,"Noise - Street/Sidewalk":6,"Noise - Vehicle":2,"Noise":16},"top_desc":"Banging/Pounding"},{"lat":40.834111,"lng":-73.943067,"n":284,"addr":"556 West  158 Street","boro":"Manhattan","cb":"12 MANHATTAN","subs":{"Noise":3,"Noise - Street/Sidewalk":259,"Noise - Residential":19,"Noise - Commercial":3},"top_desc":"Loud Talking"},{"lat":40.637766,"lng":-74.076516,"n":283,"addr":"35 Victory Boulevard","boro":"Staten Island","cb":"01 STATEN ISLAND","subs":{"Noise - Street/Sidewalk":279,"Noise - Commercial":3,"Noise - Residential":1},"top_desc":"Loud Music/Party"},{"lat":40.801565,"lng":-73.952677,"n":282,"addr":"124 West  114 Street","boro":"Manhattan","cb":"10 MANHATTAN","subs":{"Noise - Residential":268,"Noise - Street/Sidewalk":14},"top_desc":"Loud Music/Party"},{"lat":40.749887,"lng":-73.862477,"n":282,"addr":"103-14 Roosevelt Avenue","boro":"Queens","cb":"04 QUEENS","subs":{"Noise - Street/Sidewalk":244,"Noise - Commercial":2,"Noise - Residential":36},"top_desc":"Loud Talking"},{"lat":40.700546,"lng":-73.909821,"n":281,"addr":"341 St Nicholas Avenue","boro":"Queens","cb":"05 QUEENS","subs":{"Noise - Commercial":217,"Noise - Vehicle":47,"Noise - Residential":7,"Noise - Street/Sidewalk":9,"Noise":1},"top_desc":"Loud Music/Party"},{"lat":40.774199,"lng":-73.979112,"n":281,"addr":"25 West   68 Street","boro":"Manhattan","cb":"07 MANHATTAN","subs":{"Noise - Helicopter":277,"Noise - Street/Sidewalk":3,"Noise":1},"top_desc":"Other"},{"lat":40.604945,"lng":-73.952473,"n":281,"addr":"2330 Ocean Avenue","boro":"Brooklyn","cb":"15 BROOKLYN","subs":{"Noise - Residential":274,"Noise - Street/Sidewalk":3,"Noise - Vehicle":4},"top_desc":"Loud Music/Party"},{"lat":40.763814,"lng":-73.828618,"n":281,"addr":"137-72 Northern Boulevard","boro":"Queens","cb":"07 QUEENS","subs":{"Noise - Commercial":266,"Noise - Street/Sidewalk":4,"Noise - Residential":11},"top_desc":"Loud Music/Party"},{"lat":40.720222,"lng":-73.981564,"n":280,"addr":"133 Pitt Street","boro":"Manhattan","cb":"03 MANHATTAN","subs":{"Noise - Residential":243,"Noise - Park":2,"Noise - Street/Sidewalk":32,"Noise":2,"Noise - Vehicle":1},"top_desc":"Banging/Pounding"},{"lat":40.856525,"lng":-73.916236,"n":280,"addr":"1975 Sedgwick Avenue","boro":"Bronx","cb":"05 BRONX","subs":{"Noise - Residential":142,"Noise - Vehicle":7,"Noise - Street/Sidewalk":127,"Noise - Park":1,"Noise":2,"Noise - Commercial":1},"top_desc":"Loud Music/Party"},{"lat":40.717937,"lng":-73.982667,"n":279,"addr":"60 Pitt Street","boro":"Manhattan","cb":"03 MANHATTAN","subs":{"Noise - Residential":279},"top_desc":"Banging/Pounding"},{"lat":40.82497,"lng":-73.877371,"n":278,"addr":"1030 Boynton Avenue","boro":"Bronx","cb":"09 BRONX","subs":{"Noise - Residential":157,"Noise - Street/Sidewalk":120,"Noise - Vehicle":1},"top_desc":"Banging/Pounding"},{"lat":40.699342,"lng":-73.937478,"n":276,"addr":"29 Locust Street","boro":"Brooklyn","cb":"04 BROOKLYN","subs":{"Noise - Commercial":184,"Noise - Street/Sidewalk":57,"Noise - Vehicle":3,"Noise - Residential":31,"Noise":1},"top_desc":"Loud Music/Party"},{"lat":40.854629,"lng":-73.885315,"n":276,"addr":"2400 Cambreleng Avenue","boro":"Bronx","cb":"06 BRONX","subs":{"Noise - Residential":109,"Noise - Commercial":40,"Noise - Street/Sidewalk":115,"Noise - Vehicle":12},"top_desc":"Loud Music/Party"},{"lat":40.83772,"lng":-73.864959,"n":276,"addr":"1850 Archer Street","boro":"Bronx","cb":"09 BRONX","subs":{"Noise - Commercial":167,"Noise - Vehicle":35,"Noise - Street/Sidewalk":74},"top_desc":"Loud Music/Party"},{"lat":40.751546,"lng":-73.823985,"n":276,"addr":"44-15 Colden Street","boro":"Queens","cb":"07 QUEENS","subs":{"Noise - Residential":266,"Noise - Street/Sidewalk":10},"top_desc":"Loud Talking"},{"lat":40.737346,"lng":-73.863401,"n":275,"addr":"97-22 57 Avenue","boro":"Queens","cb":"04 QUEENS","subs":{"Noise - Residential":258,"Noise":8,"Noise - Street/Sidewalk":8,"Noise - Vehicle":1},"top_desc":"Banging/Pounding"},{"lat":40.861927,"lng":-73.849201,"n":275,"addr":"2449 Wilson Avenue","boro":"Bronx","cb":"11 BRONX","subs":{"Noise - Residential":143,"Noise - Street/Sidewalk":6,"Noise":125,"Noise - Vehicle":1},"top_desc":"Loud Talking"},{"lat":40.81563,"lng":-73.943474,"n":274,"addr":"2308 7 Avenue","boro":"Manhattan","cb":"10 MANHATTAN","subs":{"Noise":4,"Noise - Residential":148,"Noise - Commercial":100,"Noise - Street/Sidewalk":22},"top_desc":"Loud Music/Party"},{"lat":40.861888,"lng":-73.929492,"n":273,"addr":"108 Ellwood Street","boro":"Manhattan","cb":"12 MANHATTAN","subs":{"Noise - Vehicle":22,"Noise - Residential":33,"Noise - Street/Sidewalk":214,"Noise - Commercial":4},"top_desc":"Loud Music/Party"},{"lat":40.669148,"lng":-73.851024,"n":273,"addr":"149-41 84 Street","boro":"Queens","cb":"10 QUEENS","subs":{"Noise - Helicopter":271,"Noise - Residential":2},"top_desc":"Other"},{"lat":40.774805,"lng":-73.978607,"n":273,"addr":"31 West   69 Street","boro":"Manhattan","cb":"07 MANHATTAN","subs":{"Noise - Helicopter":265,"Noise":5,"Noise - Residential":3},"top_desc":"Other"},{"lat":40.815679,"lng":-73.864504,"n":273,"addr":"551 Commonwealth Avenue","boro":"Bronx","cb":"09 BRONX","subs":{"Noise - Residential":230,"Noise - Commercial":11,"Noise - Street/Sidewalk":27,"Noise - Vehicle":4,"Noise":1},"top_desc":"Banging/Pounding"},{"lat":40.74899,"lng":-74.00137,"n":272,"addr":"420 West   26 Street","boro":"Manhattan","cb":"04 MANHATTAN","subs":{"Noise - Residential":251,"Noise - Street/Sidewalk":19,"Noise":1,"Noise - Vehicle":1},"top_desc":"Loud Talking"},{"lat":40.561155,"lng":-74.102675,"n":272,"addr":"18 Milbank Road","boro":"Staten Island","cb":"02 STATEN ISLAND","subs":{"Noise - Residential":207,"Noise - Vehicle":62,"Noise - Commercial":1,"Noise":2},"top_desc":"Banging/Pounding"},{"lat":40.836758,"lng":-73.903823,"n":271,"addr":"1460 Washington Avenue","boro":"Bronx","cb":"03 BRONX","subs":{"Noise - Residential":124,"Noise - Street/Sidewalk":133,"Noise - Vehicle":11,"Noise":3},"top_desc":"Loud Music/Party"},{"lat":40.826399,"lng":-73.952545,"n":271,"addr":"668 Riverside Drive","boro":"Manhattan","cb":"09 MANHATTAN","subs":{"Noise - Street/Sidewalk":34,"Noise - Residential":232,"Noise - Vehicle":4,"Noise":1},"top_desc":"Loud Music/Party"},{"lat":40.667705,"lng":-73.863017,"n":271,"addr":"1307 Loring Avenue","boro":"Brooklyn","cb":"05 BROOKLYN","subs":{"Noise - Residential":270,"Noise - Street/Sidewalk":1},"top_desc":"Banging/Pounding"},{"lat":40.657594,"lng":-73.950302,"n":269,"addr":"1207 Nostrand Avenue","boro":"Brooklyn","cb":"09 BROOKLYN","subs":{"Noise - Commercial":194,"Noise - Residential":54,"Noise":3,"Noise - Street/Sidewalk":18},"top_desc":"Loud Music/Party"},{"lat":40.868062,"lng":-73.895511,"n":269,"addr":"2721 Morris Avenue","boro":"Bronx","cb":"07 BRONX","subs":{"Noise - Residential":93,"Noise - Street/Sidewalk":171,"Noise - Vehicle":3,"Noise - Commercial":1,"Noise":1},"top_desc":"Loud Music/Party"},{"lat":40.756875,"lng":-73.872929,"n":268,"addr":"95-01 Northern Boulevard","boro":"Queens","cb":"03 QUEENS","subs":{"Noise - Street/Sidewalk":86,"Noise - Commercial":23,"Noise - Vehicle":15,"Noise - Residential":139,"Noise":5},"top_desc":"Banging/Pounding"},{"lat":40.844529,"lng":-73.879464,"n":267,"addr":"975 East  181 Street","boro":"Bronx","cb":"06 BRONX","subs":{"Noise - Residential":169,"Noise - Vehicle":28,"Noise - Street/Sidewalk":69,"Noise - Commercial":1},"top_desc":"Loud Music/Party"},{"lat":40.813923,"lng":-73.916632,"n":267,"addr":"463 East  147 Street","boro":"Bronx","cb":"01 BRONX","subs":{"Noise - Residential":96,"Noise - Street/Sidewalk":142,"Noise - Vehicle":29},"top_desc":"Loud Talking"},{"lat":40.760965,"lng":-73.857601,"n":267,"addr":"1 Marina Road","boro":"Queens","cb":"03 QUEENS","subs":{"Noise - Commercial":13,"Noise - Street/Sidewalk":89,"Noise - Vehicle":150,"Noise - Residential":12,"Noise - Park":3},"top_desc":"Car/Truck Music"},{"lat":40.622574,"lng":-73.984097,"n":267,"addr":"1 Dahl Court","boro":"Brooklyn","cb":"12 BROOKLYN","subs":{"Noise - Residential":257,"Noise - Street/Sidewalk":10},"top_desc":"Loud Talking"},{"lat":40.873646,"lng":-73.866153,"n":266,"addr":"3315 Cruger Avenue","boro":"Bronx","cb":"12 BRONX","subs":{"Noise - Residential":255,"Noise - Street/Sidewalk":4,"Noise":7},"top_desc":"Banging/Pounding"},{"lat":40.748464,"lng":-73.863499,"n":266,"addr":"102-03 41 Avenue","boro":"Queens","cb":"04 QUEENS","subs":{"Noise - Commercial":15,"Noise - Residential":71,"Noise - Street/Sidewalk":178,"Noise":1,"Noise - Park":1},"top_desc":"Loud Talking"},{"lat":40.711438,"lng":-73.957599,"n":266,"addr":"160 Havemeyer Street","boro":"Brooklyn","cb":"01 BROOKLYN","subs":{"Noise - Vehicle":73,"Noise - Street/Sidewalk":128,"Noise - Residential":51,"Noise":12,"Noise - Commercial":2},"top_desc":"Loud Music/Party"},{"lat":40.866125,"lng":-73.927962,"n":266,"addr":"Dyckman Street","boro":"Manhattan","cb":"12 MANHATTAN","subs":{"Noise - Vehicle":6,"Noise - Street/Sidewalk":215,"Noise - Commercial":41,"Noise - Residential":4},"top_desc":"Loud Music/Party"},{"lat":40.869064,"lng":-73.895687,"n":265,"addr":"10 East  196 Street","boro":"Bronx","cb":"07 BRONX","subs":{"Noise - Street/Sidewalk":118,"Noise - Residential":113,"Noise - Vehicle":34},"top_desc":"Loud Music/Party"},{"lat":40.889176,"lng":-73.878699,"n":264,"addr":"3545 Jerome Avenue","boro":"Bronx","cb":"26 BRONX","subs":{"Noise - Park":98,"Noise - Street/Sidewalk":154,"Noise - Residential":11,"Noise - Vehicle":1},"top_desc":"Loud Music/Party"},{"lat":40.85679,"lng":-73.893931,"n":264,"addr":"4575 Park Avenue","boro":"Bronx","cb":"06 BRONX","subs":{"Noise - Residential":57,"Noise - Street/Sidewalk":196,"Noise - Vehicle":11},"top_desc":"Loud Music/Party"},{"lat":40.821569,"lng":-73.950667,"n":264,"addr":"503 West  139 Street","boro":"Manhattan","cb":"09 MANHATTAN","subs":{"Noise - Street/Sidewalk":239,"Noise - Residential":6,"Noise - Commercial":14,"Noise - Vehicle":4,"Noise":1},"top_desc":"Loud Talking"},{"lat":40.745867,"lng":-73.914346,"n":262,"addr":"41-29 50 Street","boro":"Queens","cb":"02 QUEENS","subs":{"Noise - Street/Sidewalk":1,"Noise - Residential":250,"Noise":7,"Noise - Vehicle":4},"top_desc":"Banging/Pounding"},{"lat":40.848744,"lng":-73.891965,"n":262,"addr":"2070 Arthur Avenue","boro":"Bronx","cb":"06 BRONX","subs":{"Noise - Residential":254,"Noise - Vehicle":2,"Noise - Street/Sidewalk":6},"top_desc":"Loud Music/Party"},{"lat":40.724384,"lng":-73.975521,"n":261,"addr":"131 Avenue D","boro":"Manhattan","cb":"03 MANHATTAN","subs":{"Noise - Residential":162,"Noise - Street/Sidewalk":90,"Noise - Vehicle":6,"Noise - Commercial":1,"Noise":2},"top_desc":"Loud Music/Party"},{"lat":40.690888,"lng":-73.782799,"n":260,"addr":"112-25 167 Street","boro":"Queens","cb":"12 QUEENS","subs":{"Noise - Residential":259,"Noise":1},"top_desc":"Banging/Pounding"},{"lat":40.854622,"lng":-73.928989,"n":259,"addr":"570 West  190 Street","boro":"Manhattan","cb":"12 MANHATTAN","subs":{"Noise - Street/Sidewalk":255,"Noise - Residential":4},"top_desc":"Loud Music/Party"},{"lat":40.675303,"lng":-74.003657,"n":258,"addr":"754 Henry Street","boro":"Brooklyn","cb":"06 BROOKLYN","subs":{"Noise - Residential":246,"Noise - Street/Sidewalk":12},"top_desc":"Banging/Pounding"},{"lat":40.658402,"lng":-73.904584,"n":257,"addr":"240 Lott Avenue","boro":"Brooklyn","cb":"16 BROOKLYN","subs":{"Noise - Residential":53,"Noise - Street/Sidewalk":204},"top_desc":"Loud Music/Party"},{"lat":40.851987,"lng":-73.930561,"n":255,"addr":"552 West  186 Street","boro":"Manhattan","cb":"12 MANHATTAN","subs":{"Noise - Residential":110,"Noise - Vehicle":16,"Noise - Street/Sidewalk":120,"Noise - Commercial":3,"Noise":6},"top_desc":"Loud Music/Party"},{"lat":40.864764,"lng":-73.922768,"n":255,"addr":"165 Sherman Avenue","boro":"Manhattan","cb":"12 MANHATTAN","subs":{"Noise - Residential":41,"Noise - Vehicle":90,"Noise - Street/Sidewalk":119,"Noise - Commercial":5},"top_desc":"Loud Music/Party"},{"lat":40.867584,"lng":-73.893215,"n":255,"addr":"2720 Grand Concourse","boro":"Bronx","cb":"07 BRONX","subs":{"Noise - Residential":125,"Noise - Street/Sidewalk":130},"top_desc":"Loud Music/Party"},{"lat":40.864585,"lng":-73.923873,"n":254,"addr":"603 Academy Street","boro":"Manhattan","cb":"12 MANHATTAN","subs":{"Noise - Residential":180,"Noise - Street/Sidewalk":55,"Noise":1,"Noise - Commercial":1,"Noise - Vehicle":17},"top_desc":"Banging/Pounding"},{"lat":40.750961,"lng":-73.970868,"n":254,"addr":"303 East   44 Street","boro":"Manhattan","cb":"06 MANHATTAN","subs":{"Noise - Residential":24,"Noise":229,"Noise - Commercial":1},"top_desc":"Noise: Construction Before/After Hours (NM1)"},{"lat":40.856646,"lng":-73.924692,"n":254,"addr":"Amsterdam Avenue","boro":"Manhattan","cb":"12 MANHATTAN","subs":{"Noise - Vehicle":26,"Noise - Street/Sidewalk":222,"Noise - Residential":6},"top_desc":"Loud Music/Party"},{"lat":40.694389,"lng":-73.826676,"n":253,"addr":"120-23 Atlantic Avenue","boro":"Queens","cb":"09 QUEENS","subs":{"Noise - Vehicle":56,"Noise - Commercial":129,"Noise - Street/Sidewalk":64,"Noise - Residential":3,"Noise":1},"top_desc":"Loud Music/Party"},{"lat":40.74244,"lng":-73.872216,"n":252,"addr":"92-02 Corona Avenue","boro":"Queens","cb":"04 QUEENS","subs":{"Noise - Commercial":223,"Noise - Vehicle":14,"Noise - Residential":1,"Noise - Street/Sidewalk":6,"Noise":8},"top_desc":"Loud Music/Party"},{"lat":40.795073,"lng":-73.936099,"n":252,"addr":"2235 First Avenue","boro":"Manhattan","cb":"11 MANHATTAN","subs":{"Noise - Street/Sidewalk":186,"Noise - Residential":35,"Noise - Commercial":2,"Noise":1,"Noise - Vehicle":28},"top_desc":"Loud Music/Party"},{"lat":40.826117,"lng":-73.924757,"n":251,"addr":"835 Walton Avenue","boro":"Bronx","cb":"04 BRONX","subs":{"Noise - Street/Sidewalk":81,"Noise - Residential":169,"Noise":1},"top_desc":"Loud Music/Party"},{"lat":40.801435,"lng":-73.934432,"n":250,"addr":"2400 2 Avenue","boro":"Manhattan","cb":"11 MANHATTAN","subs":{"Noise - Residential":248,"Noise - Street/Sidewalk":2},"top_desc":"Loud Talking"},{"lat":40.610743,"lng":-73.927477,"n":250,"addr":"2055 Kimball Street","boro":"Brooklyn","cb":"18 BROOKLYN","subs":{"Noise - Helicopter":250},"top_desc":"Other"},{"lat":40.838545,"lng":-73.913894,"n":249,"addr":"1398 Grand Concourse","boro":"Bronx","cb":"04 BRONX","subs":{"Noise - Residential":20,"Noise - Commercial":52,"Noise - Street/Sidewalk":156,"Noise - Vehicle":18,"Noise - Park":2,"Noise - Helicopter":1},"top_desc":"Loud Music/Party"},{"lat":40.765215,"lng":-73.913915,"n":249,"addr":"28-25 Steinway Street","boro":"Queens","cb":"01 QUEENS","subs":{"Noise - Commercial":157,"Noise - Residential":61,"Noise - Vehicle":4,"Noise - Street/Sidewalk":26,"Noise":1},"top_desc":"Loud Music/Party"},{"lat":40.730908,"lng":-73.995934,"n":248,"addr":"3 Washington Square North","boro":"Manhattan","cb":"02 MANHATTAN","subs":{"Noise - Park":247,"Noise - Street/Sidewalk":1},"top_desc":"Loud Music/Party"},{"lat":40.778416,"lng":-73.97905,"n":248,"addr":"125 West   73 Street","boro":"Manhattan","cb":"07 MANHATTAN","subs":{"Noise - Commercial":79,"Noise - Helicopter":12,"Noise - Vehicle":101,"Noise - Street/Sidewalk":18,"Noise":20,"Noise - Residential":18},"top_desc":"Engine Idling"},{"lat":40.777013,"lng":-73.979956,"n":247,"addr":"116 West   71 Street","boro":"Manhattan","cb":"07 MANHATTAN","subs":{"Noise - Helicopter":236,"Noise - Residential":4,"Noise":2,"Noise - Street/Sidewalk":4,"Noise - Vehicle":1},"top_desc":"Other"},{"lat":40.777065,"lng":-73.977973,"n":247,"addr":"50 West   72 Street","boro":"Manhattan","cb":"07 MANHATTAN","subs":{"Noise - Helicopter":204,"Noise":16,"Noise - Residential":23,"Noise - Commercial":2,"Noise - Street/Sidewalk":1,"Noise - Vehicle":1},"top_desc":"Other"},{"lat":40.749098,"lng":-73.88703,"n":247,"addr":"37-61 79 Street","boro":"Queens","cb":"03 QUEENS","subs":{"Noise - Commercial":81,"Noise - Street/Sidewalk":123,"Noise - Residential":13,"Noise - Vehicle":28,"Noise":2},"top_desc":"Loud Music/Party"},{"lat":40.767544,"lng":-73.912023,"n":245,"addr":"25-72 Steinway Street","boro":"Queens","cb":"01 QUEENS","subs":{"Noise - Commercial":159,"Noise - Residential":27,"Noise":11,"Noise - Street/Sidewalk":39,"Noise - Vehicle":9},"top_desc":"Loud Music/Party"},{"lat":40.717657,"lng":-73.985532,"n":244,"addr":"168 Delancey St North","boro":"Manhattan","cb":"03 MANHATTAN","subs":{"Noise - Commercial":221,"Noise - Street/Sidewalk":16,"Noise - Residential":7},"top_desc":"Loud Music/Party"},{"lat":40.760953,"lng":-73.998602,"n":243,"addr":"605 West   42 Street","boro":"Manhattan","cb":"04 MANHATTAN","subs":{"Noise - Residential":140,"Noise":17,"Noise - Vehicle":70,"Noise - Street/Sidewalk":3,"Noise - Commercial":13},"top_desc":"Loud Music/Party"},{"lat":40.867474,"lng":-73.809443,"n":243,"addr":"Pelham Bay Park","boro":"Bronx","cb":"28 BRONX","subs":{"Noise - Park":239,"Noise - Street/Sidewalk":2,"Noise - Vehicle":2},"top_desc":"Loud Music/Party"},{"lat":40.842005,"lng":-73.892805,"n":242,"addr":"1795 Clinton Avenue","boro":"Bronx","cb":"06 BRONX","subs":{"Noise - Residential":215,"Noise":20,"Noise - Street/Sidewalk":7},"top_desc":"Banging/Pounding"},{"lat":40.83728,"lng":-73.938924,"n":242,"addr":"501 West  164 Street","boro":"Manhattan","cb":"12 MANHATTAN","subs":{"Noise - Street/Sidewalk":201,"Noise - Vehicle":39,"Noise - Residential":2},"top_desc":"Loud Music/Party"},{"lat":40.846967,"lng":-73.935445,"n":242,"addr":"1348 St Nicholas Avenue","boro":"Manhattan","cb":"12 MANHATTAN","subs":{"Noise - Street/Sidewalk":152,"Noise - Vehicle":51,"Noise - Residential":31,"Noise - Commercial":8},"top_desc":"Loud Music/Party"},{"lat":40.86094,"lng":-73.906571,"n":242,"addr":"2305 University Avenue","boro":"Bronx","cb":"07 BRONX","subs":{"Noise - Residential":149,"Noise - Street/Sidewalk":92,"Noise - Vehicle":1},"top_desc":"Banging/Pounding"},{"lat":40.747468,"lng":-73.876557,"n":241,"addr":"89-25 Elmhurst Avenue","boro":"Queens","cb":"04 QUEENS","subs":{"Noise - Residential":69,"Noise - Street/Sidewalk":161,"Noise":3,"Noise - Vehicle":8},"top_desc":"Loud Music/Party"},{"lat":40.713337,"lng":-73.982791,"n":241,"addr":"351 Madison Street","boro":"Manhattan","cb":"03 MANHATTAN","subs":{"Noise - Residential":238,"Noise - Street/Sidewalk":2,"Noise":1},"top_desc":"Banging/Pounding"},{"lat":40.850469,"lng":-73.938449,"n":241,"addr":"454 Fort Washington Avenue","boro":"Manhattan","cb":"12 MANHATTAN","subs":{"Noise - Residential":198,"Noise":11,"Noise - Street/Sidewalk":26,"Noise - Vehicle":4,"Noise - Commercial":2},"top_desc":"Banging/Pounding"},{"lat":40.660182,"lng":-73.91413,"n":241,"addr":"Riverdale Avenue","boro":"Brooklyn","cb":"16 BROOKLYN","subs":{"Noise - Vehicle":239,"Noise - Residential":2},"top_desc":"Car/Truck Music"},{"lat":40.847395,"lng":-73.908057,"n":240,"addr":"1815 Grand Concourse","boro":"Bronx","cb":"05 BRONX","subs":{"Noise - Commercial":12,"Noise - Residential":52,"Noise - Vehicle":58,"Noise - Street/Sidewalk":116,"Noise":2},"top_desc":"Loud Music/Party"},{"lat":40.789425,"lng":-73.971171,"n":239,"addr":"117 West   90 Street","boro":"Manhattan","cb":"07 MANHATTAN","subs":{"Noise - Residential":216,"Noise - Street/Sidewalk":14,"Noise - Vehicle":1,"Noise":3,"Noise - Park":5},"top_desc":"Banging/Pounding"},{"lat":40.680725,"lng":-73.791506,"n":239,"addr":"150-59 Foch Boulevard","boro":"Queens","cb":"12 QUEENS","subs":{"Noise - Residential":235,"Noise - Street/Sidewalk":4},"top_desc":"Loud Talking"},{"lat":40.803566,"lng":-73.955985,"n":239,"addr":"2128 8 Avenue","boro":"Manhattan","cb":"10 MANHATTAN","subs":{"Noise - Street/Sidewalk":141,"Noise - Commercial":60,"Noise - Residential":18,"Noise - Vehicle":19,"Noise":1},"top_desc":"Loud Music/Party"},{"lat":40.68676,"lng":-73.939433,"n":239,"addr":"451 Monroe Street","boro":"Brooklyn","cb":"03 BROOKLYN","subs":{"Noise - Vehicle":204,"Noise - Street/Sidewalk":26,"Noise - Residential":9},"top_desc":"Car/Truck Music"},{"lat":40.865099,"lng":-73.930913,"n":239,"addr":"99 Margaret Corbin Drive","boro":"Manhattan","cb":"12 MANHATTAN","subs":{"Noise - Vehicle":30,"Noise - Street/Sidewalk":185,"Noise - Residential":4,"Noise - Park":10,"Noise - Commercial":9,"Noise - Helicopter":1},"top_desc":"Loud Music/Party"},{"lat":40.834085,"lng":-73.905328,"n":238,"addr":"1350 Washington Avenue","boro":"Bronx","cb":"03 BRONX","subs":{"Noise - Residential":220,"Noise - Street/Sidewalk":17,"Noise - Vehicle":1},"top_desc":"Banging/Pounding"},{"lat":40.821706,"lng":-73.94273,"n":238,"addr":"2698 8 Avenue","boro":"Manhattan","cb":"10 MANHATTAN","subs":{"Noise - Residential":234,"Noise":4},"top_desc":"Banging/Pounding"},{"lat":40.605586,"lng":-73.955754,"n":237,"addr":"1815 East   17 Street","boro":"Brooklyn","cb":"15 BROOKLYN","subs":{"Noise - Street/Sidewalk":176,"Noise - Residential":29,"Noise - Vehicle":29,"Noise":3},"top_desc":"Loud Talking"},{"lat":40.662462,"lng":-73.92697,"n":237,"addr":"60 East   93 Street","boro":"Brooklyn","cb":"17 BROOKLYN","subs":{"Noise - Residential":206,"Noise - Street/Sidewalk":23,"Noise - Vehicle":2,"Noise - Commercial":6},"top_desc":"Loud Music/Party"},{"lat":40.798671,"lng":-73.910809,"n":237,"addr":"83 Locust Avenue","boro":"Bronx","cb":"01 BRONX","subs":{"Noise - Street/Sidewalk":152,"Noise - Vehicle":36,"Noise - Commercial":33,"Noise - Residential":16},"top_desc":"Loud Music/Party"},{"lat":40.844261,"lng":-73.939801,"n":237,"addr":"650 West  172 Street","boro":"Manhattan","cb":"12 MANHATTAN","subs":{"Noise - Residential":52,"Noise - Street/Sidewalk":172,"Noise - Vehicle":13},"top_desc":"Loud Music/Party"},{"lat":40.822005,"lng":-73.939921,"n":235,"addr":"219 West  145 Street","boro":"Manhattan","cb":"10 MANHATTAN","subs":{"Noise - Street/Sidewalk":39,"Noise - Residential":36,"Noise - Commercial":160},"top_desc":"Loud Music/Party"},{"lat":40.718927,"lng":-73.991563,"n":235,"addr":"134 Eldridge Street","boro":"Manhattan","cb":"03 MANHATTAN","subs":{"Noise - Street/Sidewalk":40,"Noise":6,"Noise - Commercial":155,"Noise - Residential":32,"Noise - Vehicle":2},"top_desc":"Loud Music/Party"},{"lat":40.683562,"lng":-73.988557,"n":235,"addr":"426 Baltic Street","boro":"Brooklyn","cb":"06 BROOKLYN","subs":{"Noise - Street/Sidewalk":194,"Noise - Residential":40,"Noise":1},"top_desc":"Loud Music/Party"},{"lat":40.66816,"lng":-73.845795,"n":234,"addr":"89-10 151 Avenue","boro":"Queens","cb":"10 QUEENS","subs":{"Noise - Helicopter":234},"top_desc":"Other"},{"lat":40.793824,"lng":-73.947223,"n":233,"addr":"1465 Park Avenue","boro":"Manhattan","cb":"11 MANHATTAN","subs":{"Noise - Residential":219,"Noise - Street/Sidewalk":11,"Noise":3},"top_desc":"Banging/Pounding"},{"lat":40.857,"lng":-73.901394,"n":233,"addr":"2264 Creston Avenue","boro":"Bronx","cb":"05 BRONX","subs":{"Noise - Residential":72,"Noise - Vehicle":40,"Noise - Street/Sidewalk":117,"Noise":3,"Noise - Commercial":1},"top_desc":"Loud Music/Party"},{"lat":40.802388,"lng":-73.950559,"n":233,"addr":"114 West  116 Street","boro":"Manhattan","cb":"10 MANHATTAN","subs":{"Noise - Residential":34,"Noise - Street/Sidewalk":131,"Noise - House of Worship":4,"Noise - Commercial":55,"Noise - Vehicle":7,"Noise":2},"top_desc":"Loud Music/Party"},{"lat":40.838669,"lng":-73.915681,"n":233,"addr":"119 Elliot Place","boro":"Bronx","cb":"04 BRONX","subs":{"Noise - Street/Sidewalk":169,"Noise - Vehicle":11,"Noise - Residential":53},"top_desc":"Loud Music/Party"},{"lat":40.840677,"lng":-73.925171,"n":232,"addr":"1324 Ogden Avenue","boro":"Bronx","cb":"04 BRONX","subs":{"Noise - Residential":232},"top_desc":"Loud Talking"},{"lat":40.826106,"lng":-73.871082,"n":232,"addr":"1050 Soundview Avenue","boro":"Bronx","cb":"09 BRONX","subs":{"Noise - Residential":229,"Noise":2,"Noise - Street/Sidewalk":1},"top_desc":"Banging/Pounding"},{"lat":40.75597,"lng":-73.881513,"n":230,"addr":"86-01 Northern Boulevard","boro":"Queens","cb":"03 QUEENS","subs":{"Noise - Commercial":204,"Noise - Vehicle":6,"Noise - Street/Sidewalk":8,"Noise - Residential":11,"Noise":1},"top_desc":"Loud Music/Party"},{"lat":40.864315,"lng":-73.864486,"n":230,"addr":"2560 Wallace Avenue","boro":"Bronx","cb":"11 BRONX","subs":{"Noise - Residential":229,"Noise":1},"top_desc":"Loud Music/Party"},{"lat":40.60265,"lng":-73.964748,"n":230,"addr":"710 Avenue S","boro":"Brooklyn","cb":"15 BROOKLYN","subs":{"Noise - Residential":229,"Noise":1},"top_desc":"Loud Talking"},{"lat":40.662937,"lng":-73.950878,"n":230,"addr":"1038 Nostrand Avenue","boro":"Brooklyn","cb":"09 BROOKLYN","subs":{"Noise - Residential":36,"Noise - Street/Sidewalk":62,"Noise - Commercial":117,"Noise":3,"Noise - Vehicle":12},"top_desc":"Loud Music/Party"},{"lat":40.774345,"lng":-73.979457,"n":229,"addr":"48 West   68 Street","boro":"Manhattan","cb":"07 MANHATTAN","subs":{"Noise - Helicopter":204,"Noise - Residential":14,"Noise":7,"Noise - Street/Sidewalk":2,"Noise - Vehicle":2},"top_desc":"Other"},{"lat":40.839721,"lng":-73.872318,"n":228,"addr":"1230 East Tremont Avenue","boro":"Bronx","cb":"09 BRONX","subs":{"Noise - Residential":201,"Noise - Commercial":3,"Noise - Street/Sidewalk":13,"Noise":11},"top_desc":"Loud Music/Party"},{"lat":40.821326,"lng":-73.900006,"n":228,"addr":"870 East  162 Street","boro":"Bronx","cb":"02 BRONX","subs":{"Noise - Residential":207,"Noise":3,"Noise - Street/Sidewalk":18},"top_desc":"Loud Talking"},{"lat":40.839259,"lng":-73.877878,"n":228,"addr":"350 Devoe Avenue","boro":"Bronx","cb":"06 BRONX","subs":{"Noise - Street/Sidewalk":222,"Noise - Residential":2,"Noise - Vehicle":4},"top_desc":"Loud Music/Party"},{"lat":40.729547,"lng":-74.000875,"n":227,"addr":"105 Macdougal Street","boro":"Manhattan","cb":"02 MANHATTAN","subs":{"Noise - Commercial":87,"Noise - Street/Sidewalk":98,"Noise - Residential":21,"Noise - Vehicle":16,"Noise":5},"top_desc":"Loud Music/Party"},{"lat":40.615772,"lng":-73.954502,"n":227,"addr":"1877 Ocean Avenue","boro":"Brooklyn","cb":"14 BROOKLYN","subs":{"Noise - Residential":216,"Noise - Commercial":2,"Noise":4,"Noise - Street/Sidewalk":4,"Noise - Vehicle":1},"top_desc":"Banging/Pounding"},{"lat":40.775211,"lng":-73.977625,"n":226,"addr":"16 West   70 Street","boro":"Manhattan","cb":"07 MANHATTAN","subs":{"Noise - Helicopter":221,"Noise":3,"Noise - Residential":2},"top_desc":"Other"},{"lat":40.59463,"lng":-74.079418,"n":226,"addr":"147 Norway Avenue","boro":"Staten Island","cb":"02 STATEN ISLAND","subs":{"Noise - Residential":226},"top_desc":"Banging/Pounding"},{"lat":40.824996,"lng":-73.951503,"n":226,"addr":"3495 Broadway","boro":"Manhattan","cb":"09 MANHATTAN","subs":{"Noise - Street/Sidewalk":187,"Noise":2,"Noise - Commercial":27,"Noise - Residential":6,"Noise - Vehicle":4},"top_desc":"Loud Music/Party"},{"lat":40.684891,"lng":-73.938434,"n":226,"addr":"358 Marcus Garvey Boulevard","boro":"Brooklyn","cb":"03 BROOKLYN","subs":{"Noise - Commercial":95,"Noise - Residential":120,"Noise - Street/Sidewalk":9,"Noise - Vehicle":1,"Noise":1},"top_desc":"Loud Talking"},{"lat":40.852152,"lng":-73.931669,"n":226,"addr":"1513 St Nicholas Avenue","boro":"Manhattan","cb":"12 MANHATTAN","subs":{"Noise - Commercial":59,"Noise - Street/Sidewalk":147,"Noise - Residential":2,"Noise - Vehicle":18},"top_desc":"Loud Music/Party"},{"lat":40.803433,"lng":-73.952363,"n":226,"addr":"1925 7 Avenue","boro":"Manhattan","cb":"10 MANHATTAN","subs":{"Noise - Residential":5,"Noise - Street/Sidewalk":221},"top_desc":"Loud Talking"},{"lat":40.855995,"lng":-73.863827,"n":224,"addr":"2181 Barnes Avenue","boro":"Bronx","cb":"11 BRONX","subs":{"Noise - Residential":212,"Noise - Street/Sidewalk":11,"Noise - Vehicle":1},"top_desc":"Loud Music/Party"},{"lat":40.595996,"lng":-73.742187,"n":224,"addr":"711 Seagirt Avenue","boro":"Queens","cb":"14 QUEENS","subs":{"Noise - Residential":194,"Noise - Street/Sidewalk":27,"Noise":3},"top_desc":"Loud Music/Party"},{"lat":40.833117,"lng":-73.94063,"n":224,"addr":"St Nicholas Avenue","boro":"Manhattan","cb":"12 MANHATTAN","subs":{"Noise - Residential":11,"Noise":2,"Noise - Commercial":3,"Noise - Street/Sidewalk":206,"Noise - Vehicle":2},"top_desc":"Loud Talking"},{"lat":40.718425,"lng":-73.98918,"n":223,"addr":"92 Ludlow Street","boro":"Manhattan","cb":"03 MANHATTAN","subs":{"Noise - Commercial":187,"Noise - Street/Sidewalk":23,"Noise - Vehicle":1,"Noise":1,"Noise - Residential":11},"top_desc":"Loud Music/Party"},{"lat":40.836506,"lng":-73.90535,"n":223,"addr":"Park Avenue","boro":"Bronx","cb":"03 BRONX","subs":{"Noise - Vehicle":78,"Noise - Street/Sidewalk":143,"Noise - Commercial":1,"Noise - Residential":1},"top_desc":"Loud Music/Party"},{"lat":40.854664,"lng":-73.885777,"n":223,"addr":"660 East  187 Street","boro":"Bronx","cb":"06 BRONX","subs":{"Noise - Commercial":18,"Noise - Residential":7,"Noise - Street/Sidewalk":197,"Noise":1},"top_desc":"Loud Music/Party"},{"lat":40.8449,"lng":-73.886994,"n":223,"addr":"2006 Mapes Avenue","boro":"Bronx","cb":"06 BRONX","subs":{"Noise - Residential":222,"Noise - Street/Sidewalk":1},"top_desc":"Loud Music/Party"},{"lat":40.80856,"lng":-73.915543,"n":223,"addr":"578 East  141 Street","boro":"Bronx","cb":"01 BRONX","subs":{"Noise - Residential":154,"Noise - Street/Sidewalk":69},"top_desc":"Banging/Pounding"},{"lat":40.64588,"lng":-73.959932,"n":223,"addr":"2016 Regent Place","boro":"Brooklyn","cb":"14 BROOKLYN","subs":{"Noise - Residential":219,"Noise":3,"Noise - Helicopter":1},"top_desc":"Loud Music/Party"},{"lat":40.843421,"lng":-73.914265,"n":223,"addr":"1565 Townsend Avenue","boro":"Bronx","cb":"04 BRONX","subs":{"Noise - Street/Sidewalk":99,"Noise - Vehicle":90,"Noise - Residential":34},"top_desc":"Loud Music/Party"},{"lat":40.853158,"lng":-73.885936,"n":221,"addr":"2317 Cambreleng Avenue","boro":"Bronx","cb":"06 BRONX","subs":{"Noise - Residential":216,"Noise":4,"Noise - Street/Sidewalk":1},"top_desc":"Banging/Pounding"},{"lat":40.817914,"lng":-73.940055,"n":221,"addr":"143 West  140 Street","boro":"Manhattan","cb":"10 MANHATTAN","subs":{"Noise - Residential":200,"Noise":10,"Noise - Street/Sidewalk":11},"top_desc":"Banging/Pounding"},{"lat":40.69099,"lng":-73.928567,"n":221,"addr":"984 Greene Avenue","boro":"Brooklyn","cb":"03 BROOKLYN","subs":{"Noise - Residential":159,"Noise - Street/Sidewalk":61,"Noise - Commercial":1},"top_desc":"Loud Music/Party"},{"lat":40.860969,"lng":-73.900271,"n":221,"addr":"2420 Morris Avenue","boro":"Bronx","cb":"05 BRONX","subs":{"Noise - Residential":66,"Noise - Street/Sidewalk":140,"Noise - Vehicle":14,"Noise":1},"top_desc":"Loud Music/Party"},{"lat":40.764108,"lng":-73.771254,"n":221,"addr":"40-12 Bell Boulevard","boro":"Queens","cb":"11 QUEENS","subs":{"Noise - Commercial":180,"Noise - Residential":21,"Noise - Street/Sidewalk":16,"Noise":2,"Noise - Vehicle":2},"top_desc":"Loud Music/Party"},{"lat":40.848259,"lng":-73.90538,"n":221,"addr":"220 Mount Hope Place","boro":"Bronx","cb":"05 BRONX","subs":{"Noise - Residential":18,"Noise - Street/Sidewalk":193,"Noise - Vehicle":8,"Noise":2},"top_desc":"Loud Music/Party"},{"lat":40.778163,"lng":-73.980564,"n":220,"addr":"161 West   72 Street","boro":"Manhattan","cb":"07 MANHATTAN","subs":{"Noise - Street/Sidewalk":14,"Noise - Helicopter":123,"Noise - Commercial":47,"Noise - Residential":18,"Noise":16,"Noise - Vehicle":2},"top_desc":"Other"},{"lat":40.838706,"lng":-73.881281,"n":220,"addr":"1295 Rodman Place","boro":"Bronx","cb":"06 BRONX","subs":{"Noise - Residential":211,"Noise - Street/Sidewalk":7,"Noise":2},"top_desc":"Banging/Pounding"},{"lat":40.730787,"lng":-74.000832,"n":219,"addr":"131 West    3 Street","boro":"Manhattan","cb":"02 MANHATTAN","subs":{"Noise - Commercial":143,"Noise - Residential":10,"Noise - Street/Sidewalk":64,"Noise":2},"top_desc":"Loud Music/Party"},{"lat":40.710143,"lng":-73.899242,"n":219,"addr":"64-18 Fresh Pond Road","boro":"Queens","cb":"05 QUEENS","subs":{"Noise - Commercial":213,"Noise - Street/Sidewalk":2,"Noise - Residential":3,"Noise":1},"top_desc":"Loud Music/Party"},{"lat":40.854854,"lng":-73.862927,"n":219,"addr":"2125 Matthews Avenue","boro":"Bronx","cb":"11 BRONX","subs":{"Noise - Residential":195,"Noise":15,"Noise - Vehicle":2,"Noise - Street/Sidewalk":7},"top_desc":"Loud Music/Party"},{"lat":40.741566,"lng":-73.979913,"n":219,"addr":"224 East   28 Street","boro":"Manhattan","cb":"06 MANHATTAN","subs":{"Noise - Residential":75,"Noise":9,"Noise - Street/Sidewalk":120,"Noise - Vehicle":15},"top_desc":"Loud Music/Party"},{"lat":40.878503,"lng":-73.901998,"n":219,"addr":"3118 Bailey Avenue","boro":"Bronx","cb":"08 BRONX","subs":{"Noise - Commercial":17,"Noise - Residential":36,"Noise - Street/Sidewalk":162,"Noise":3,"Noise - Vehicle":1},"top_desc":"Loud Music/Party"},{"lat":40.676054,"lng":-73.815974,"n":219,"addr":"122-14 116 Avenue","boro":"Queens","cb":"10 QUEENS","subs":{"Noise - Street/Sidewalk":20,"Noise - Vehicle":40,"Noise - Commercial":127,"Noise - Residential":26,"Noise":6},"top_desc":"Loud Music/Party"},{"lat":40.763064,"lng":-73.98183,"n":218,"addr":"826 7 Avenue","boro":"Manhattan","cb":"05 MANHATTAN","subs":{"Noise - Vehicle":207,"Noise - Street/Sidewalk":9,"Noise":1,"Noise - Commercial":1},"top_desc":"Car/Truck Music"},{"lat":40.879446,"lng":-73.881971,"n":218,"addr":"3320 Kossuth Avenue","boro":"Bronx","cb":"07 BRONX","subs":{"Noise - Residential":199,"Noise - Street/Sidewalk":18,"Noise":1},"top_desc":"Banging/Pounding"},{"lat":40.84778,"lng":-73.934866,"n":218,"addr":"1365 St Nicholas Avenue","boro":"Manhattan","cb":"12 MANHATTAN","subs":{"Noise - Street/Sidewalk":144,"Noise - Residential":72,"Noise - Vehicle":1,"Noise - Commercial":1},"top_desc":"Loud Music/Party"},{"lat":40.874001,"lng":-73.908847,"n":218,"addr":"69 West  225 Street","boro":"Bronx","cb":"08 BRONX","subs":{"Noise - Residential":207,"Noise":5,"Noise - Street/Sidewalk":6},"top_desc":"Loud Music/Party"},{"lat":40.814127,"lng":-73.910757,"n":217,"addr":"550 Cauldwell Avenue","boro":"Bronx","cb":"01 BRONX","subs":{"Noise - Residential":216,"Noise - Street/Sidewalk":1},"top_desc":"Loud Talking"},{"lat":40.711063,"lng":-73.990888,"n":217,"addr":"227 Cherry Street","boro":"Manhattan","cb":"03 MANHATTAN","subs":{"Noise - Residential":209,"Noise":7,"Noise - Street/Sidewalk":1},"top_desc":"Loud Music/Party"},{"lat":40.622185,"lng":-74.082634,"n":217,"addr":"29 Warren Street","boro":"Staten Island","cb":"01 STATEN ISLAND","subs":{"Noise - Residential":216,"Noise":1},"top_desc":"Banging/Pounding"},{"lat":40.676809,"lng":-73.93453,"n":216,"addr":"1642 Pacific Street","boro":"Brooklyn","cb":"08 BROOKLYN","subs":{"Noise - Commercial":2,"Noise - Residential":214},"top_desc":"Banging/Pounding"},{"lat":40.693611,"lng":-73.97096,"n":216,"addr":"150 Clermont Avenue","boro":"Brooklyn","cb":"02 BROOKLYN","subs":{"Noise - Vehicle":207,"Noise - Street/Sidewalk":7,"Noise":2},"top_desc":"Engine Idling"},{"lat":40.830768,"lng":-73.917648,"n":216,"addr":"1060 Sherman Avenue","boro":"Bronx","cb":"04 BRONX","subs":{"Noise - Street/Sidewalk":164,"Noise - Residential":13,"Noise - Commercial":36,"Noise":2,"Noise - Vehicle":1},"top_desc":"Loud Talking"},{"lat":40.862618,"lng":-73.891014,"n":216,"addr":"2563 Decatur Avenue","boro":"Bronx","cb":"07 BRONX","subs":{"Noise - Street/Sidewalk":214,"Noise - Residential":2},"top_desc":"Loud Music/Party"},{"lat":40.823401,"lng":-73.953074,"n":215,"addr":"601 West  140 Street","boro":"Manhattan","cb":"09 MANHATTAN","subs":{"Noise - Residential":176,"Noise":23,"Noise - Street/Sidewalk":7,"Noise - Commercial":8,"Noise - Vehicle":1},"top_desc":"Loud Music/Party"},{"lat":40.754701,"lng":-73.94411,"n":215,"addr":"41-07 12 Street","boro":"Queens","cb":"01 QUEENS","subs":{"Noise - Residential":61,"Noise - Street/Sidewalk":151,"Noise - Vehicle":1,"Noise":2},"top_desc":"Loud Music/Party"},{"lat":40.856431,"lng":-73.895461,"n":215,"addr":"2302 Webster Avenue","boro":"Bronx","cb":"06 BRONX","subs":{"Noise - Residential":204,"Noise - Street/Sidewalk":7,"Noise - Commercial":4},"top_desc":"Banging/Pounding"},{"lat":40.715539,"lng":-73.991555,"n":215,"addr":"22 Orchard Street","boro":"Manhattan","cb":"03 MANHATTAN","subs":{"Noise - Residential":30,"Noise - Commercial":115,"Noise - Vehicle":18,"Noise - Street/Sidewalk":50,"Noise":2},"top_desc":"Loud Music/Party"},{"lat":40.823519,"lng":-73.951446,"n":215,"addr":"572 West  141 Street","boro":"Manhattan","cb":"09 MANHATTAN","subs":{"Noise - Residential":27,"Noise - Street/Sidewalk":188},"top_desc":"Loud Music/Party"},{"lat":40.669487,"lng":-73.846135,"n":215,"addr":"89-06 South Conduit Avenue","boro":"Queens","cb":"10 QUEENS","subs":{"Noise - Helicopter":215},"top_desc":"Other"},{"lat":40.726931,"lng":-73.982911,"n":215,"addr":"135 Avenue A","boro":"Manhattan","cb":"03 MANHATTAN","subs":{"Noise - Commercial":45,"Noise":1,"Noise - Vehicle":5,"Noise - Residential":14,"Noise - Street/Sidewalk":150},"top_desc":"Loud Talking"},{"lat":40.827445,"lng":-73.946921,"n":214,"addr":"514 West  148 Street","boro":"Manhattan","cb":"09 MANHATTAN","subs":{"Noise - Residential":191,"Noise - Street/Sidewalk":19,"Noise":4},"top_desc":"Banging/Pounding"},{"lat":40.579105,"lng":-73.835692,"n":213,"addr":"150 Beach  115 Street","boro":"Queens","cb":"14 QUEENS","subs":{"Noise - Residential":182,"Noise - Vehicle":4,"Noise - Commercial":2,"Noise - Street/Sidewalk":25},"top_desc":"Loud Music/Party"},{"lat":40.773926,"lng":-73.978471,"n":213,"addr":"16 West   68 Street","boro":"Manhattan","cb":"07 MANHATTAN","subs":{"Noise - Helicopter":213},"top_desc":"Other"},{"lat":40.602346,"lng":-73.942263,"n":213,"addr":"3342 Nostrand Avenue","boro":"Brooklyn","cb":"15 BROOKLYN","subs":{"Noise - Commercial":142,"Noise - Residential":64,"Noise - Street/Sidewalk":6,"Noise - Vehicle":1},"top_desc":"Loud Music/Party"},{"lat":40.796853,"lng":-73.964616,"n":212,"addr":"865 Columbus Avenue","boro":"Manhattan","cb":"07 MANHATTAN","subs":{"Noise - Residential":194,"Noise - Street/Sidewalk":12,"Noise":4,"Noise - Commercial":1,"Noise - Vehicle":1},"top_desc":"Banging/Pounding"},{"lat":40.778632,"lng":-73.962547,"n":212,"addr":"1000 5 Avenue","boro":"Manhattan","cb":"64 MANHATTAN","subs":{"Noise - Park":201,"Noise - Street/Sidewalk":8,"Noise - Helicopter":2,"Noise - Commercial":1},"top_desc":"Loud Music/Party"},{"lat":40.636286,"lng":-73.919039,"n":212,"addr":"1663 Ralph Avenue","boro":"Brooklyn","cb":"18 BROOKLYN","subs":{"Noise - Street/Sidewalk":5,"Noise - Commercial":180,"Noise":3,"Noise - Residential":23,"Noise - Vehicle":1},"top_desc":"Loud Music/Party"},{"lat":40.727682,"lng":-73.989191,"n":212,"addr":"225 East    6 Street","boro":"Manhattan","cb":"03 MANHATTAN","subs":{"Noise - Residential":210,"Noise":1,"Noise - Street/Sidewalk":1},"top_desc":"Loud Music/Party"},{"lat":40.713582,"lng":-73.959052,"n":211,"addr":"244 Grand Street","boro":"Brooklyn","cb":"01 BROOKLYN","subs":{"Noise - Residential":37,"Noise - Street/Sidewalk":76,"Noise - Commercial":89,"Noise":2,"Noise - Vehicle":7},"top_desc":"Loud Music/Party"},{"lat":40.789462,"lng":-73.943296,"n":211,"addr":"2029 2 Avenue","boro":"Manhattan","cb":"11 MANHATTAN","subs":{"Noise - Residential":190,"Noise":12,"Noise - Street/Sidewalk":7,"Noise - Commercial":2},"top_desc":"Banging/Pounding"},{"lat":40.802635,"lng":-73.952963,"n":211,"addr":"1902 7 Avenue","boro":"Manhattan","cb":"10 MANHATTAN","subs":{"Noise - Street/Sidewalk":172,"Noise - Commercial":3,"Noise - Residential":6,"Noise - Vehicle":29,"Noise":1},"top_desc":"Loud Music/Party"},{"lat":40.844336,"lng":-73.933949,"n":210,"addr":"500 West  175 Street","boro":"Manhattan","cb":"12 MANHATTAN","subs":{"Noise - Street/Sidewalk":191,"Noise - Residential":18,"Noise - Vehicle":1},"top_desc":"Loud Music/Party"},{"lat":40.87807,"lng":-73.846943,"n":210,"addr":"3467 Eastchester Road","boro":"Bronx","cb":"12 BRONX","subs":{"Noise - Residential":207,"Noise":3},"top_desc":"Loud Music/Party"},{"lat":40.584227,"lng":-73.932049,"n":210,"addr":"Brigham Street","boro":"Brooklyn","cb":"15 BROOKLYN","subs":{"Noise - Park":166,"Noise - Street/Sidewalk":35,"Noise - Residential":5,"Noise - Vehicle":4},"top_desc":"Loud Music/Party"},{"lat":40.795727,"lng":-73.93693,"n":208,"addr":"332 East  115 Street","boro":"Manhattan","cb":"11 MANHATTAN","subs":{"Noise - Residential":61,"Noise - Street/Sidewalk":120,"Noise - Vehicle":26,"Noise - Commercial":1},"top_desc":"Loud Music/Party"},{"lat":40.839351,"lng":-73.917491,"n":208,"addr":"24 Elliot Place","boro":"Bronx","cb":"04 BRONX","subs":{"Noise - Residential":183,"Noise - Vehicle":6,"Noise - Street/Sidewalk":18,"Noise":1},"top_desc":"Loud Music/Party"},{"lat":40.824498,"lng":-73.951895,"n":208,"addr":"3480 Broadway","boro":"Manhattan","cb":"09 MANHATTAN","subs":{"Noise - Street/Sidewalk":123,"Noise - Residential":29,"Noise - Commercial":49,"Noise - Vehicle":6,"Noise":1},"top_desc":"Loud Music/Party"},{"lat":40.795779,"lng":-73.93706,"n":207,"addr":"330 East  115 Street","boro":"Manhattan","cb":"11 MANHATTAN","subs":{"Noise - Residential":30,"Noise - Street/Sidewalk":177},"top_desc":"Loud Music/Party"},{"lat":40.730037,"lng":-74.000471,"n":207,"addr":"119 Macdougal Street","boro":"Manhattan","cb":"02 MANHATTAN","subs":{"Noise - Street/Sidewalk":146,"Noise - Vehicle":15,"Noise - Commercial":11,"Noise - Residential":31,"Noise":4},"top_desc":"Loud Music/Party"},{"lat":40.834479,"lng":-73.905112,"n":207,"addr":"1372 Washington Avenue","boro":"Bronx","cb":"03 BRONX","subs":{"Noise - Residential":183,"Noise":4,"Noise - Street/Sidewalk":20},"top_desc":"Banging/Pounding"},{"lat":40.715445,"lng":-73.976399,"n":207,"addr":"525 Franklin D Roosevelt Drive","boro":"Manhattan","cb":"03 MANHATTAN","subs":{"Noise - Residential":204,"Noise":3},"top_desc":"Loud Talking"},{"lat":40.758481,"lng":-73.924723,"n":207,"addr":"34-02 34 Avenue","boro":"Queens","cb":"01 QUEENS","subs":{"Noise - Vehicle":69,"Noise - Street/Sidewalk":95,"Noise - Residential":17,"Noise - Commercial":26},"top_desc":"Loud Music/Party"},{"lat":40.671118,"lng":-73.847092,"n":207,"addr":"139-04 Whitelaw Street","boro":"Queens","cb":"10 QUEENS","subs":{"Noise - Helicopter":205,"Noise - Street/Sidewalk":1,"Noise - Residential":1},"top_desc":"Other"},{"lat":40.76243,"lng":-73.938065,"n":206,"addr":"35-03 12 Street","boro":"Queens","cb":"01 QUEENS","subs":{"Noise - Residential":50,"Noise":15,"Noise - Street/Sidewalk":140,"Noise - Vehicle":1},"top_desc":"Loud Music/Party"},{"lat":40.681335,"lng":-73.989025,"n":206,"addr":"480 Degraw Street","boro":"Brooklyn","cb":"06 BROOKLYN","subs":{"Noise - Helicopter":201,"Noise":2,"Noise - Residential":3},"top_desc":"Other"},